Code,Name,Latitude,Longitude,No_Observed,Number_By_Party_Hours,year,Editor_Comments
CAMA,Marysville,39.2,-121.5,52095,795.3435,2009,
CASM,Sacramento,38.6,-121.55,37288,207.1556,2009,
ARWA,Wapanocca N.W.R.,35.35,-90.2333,35255,903.9744,2009,
CAPV,Peace Valley,39.1982,-121.8219,25115,866.0345,2009,
ORCO,Corvallis,44.5071,-123.2695,23279,166.576,2009,
NCMA,Mattamuskeet N.W.R.,35.45,-76.1333,13923,180.8182,2009,
WAPB,Padilla Bay,48.4834,-122.5667,13254,86.2049,2009,
TXLA,Laguna Atascosa N.W.R.,26.2391,-97.3814,12670,314.7826,2009,
WASD,Sequim-Dungeness,48.1,-123.0667,11311,46.788,2009,
BCLA,Ladner,49.0538,-123.0573,11232,52.6706,2009,
SCMC,McClellanville,33.1003,-79.4037,9177,121.5497,2009,"RC, RN"
NCAR,Alligator River N.W.R.,35.77,-76.08,8000,75.1174,2009,
WABG,Bellingham,48.8112,-122.5629,7356,28.2923,2009,
ORCV,Coquille Valley,43.115,-124.2983,7338,57.3281,2009,
CACB,Centerville Beach to King Salmon,40.642,-124.2428,6718,37.116,2009,
TXAP,Attwater Prairie Chicken N.W.R.,29.6344,-96.3667,6187,63.7835,2009,
WAEV,Everett-Marysville,48.0833,-122.2167,5839,39.5864,2009,
CASS,Salton Sea (south),33.1579,-115.6132,5452,70.3484,2009,
WASB,Skagit Bay,48.2973,-122.3879,5211,63.9387,2009,
CAAN,Año Nuevo,37.2147,-122.3182,5105,22.4939,2009,
CAPR,Point Reyes Peninsula,38.1216,-122.8901,4920,10.719,2009,
MOBO,Big Oak Tree S.P.,36.6667,-89.2667,4650,122.3684,2009,
WAED,Edmonds,47.8524,-122.2489,4103,0,2009,
ORFG,Forest Grove,45.4851,-123.1269,4028,46.0343,2009,
TXMM,Matagorda County-Mad Island Marsh,28.6833,-95.9833,3965,12.8317,2009,
CAST,Stockton,38.116,-121.3954,3672,24.9372,2009,
OKSP,Salt Plains N.W.R.,36.785,-98.1789,3600,72,2009,
OREU,Eugene,44.0768,-123.179,3433,13.8707,2009,
CARC,Rio Cosumnes,38.3505,-121.4175,3409,19.4245,2009,
CAHF,Hayward-Fremont,37.6068,-122.0667,3254,12.5637,2009,
CABE,Benicia,38.1143,-122.1094,3158,11.9282,2009,
NMRO,Roswell,33.397,-104.3983,3147,32.4433,2009,
NMBD,Bosque del Apache N.W.R.,33.8051,-106.8907,3121,55.9821,2009,
CASA,Santa Ana River Valley,33.9068,-117.4889,2922,81.1667,2009,
LACA,Catahoula N.W.R.,31.508,-92.0589,2898,75.2727,2009,
CAMW,Merced N.W.R.,37.2301,-120.6885,2714,73.3514,2009,
BCVI,Victoria,48.4667,-123.4,2690,6.561,2009,
TXCY,Cypress Creek,29.9561,-95.89,2677,17.7285,2009,
LACW,Crowley,30.1107,-92.3619,2298,32.1399,2009,
SCAB,Ace Basin,32.6126,-80.4813,2091,174.25,2009,
BCWR,White Rock,49.062,-122.7289,2072,9.3333,2009,
ORAI,Airlie,44.7131,-123.1744,1899,15.5337,2009,
AZHV,Havasu N.W.R.,34.4525,-114.3107,1582,16.7851,2009,
TXPA,Port Aransas,27.8502,-97.1,1527,15.542,2009,
ORCB,Coos Bay,43.3759,-124.2973,1506,14.9851,2009,
TXCF,Corpus Christi (Flour Bluff),27.6584,-97.2938,1459,11.7425,2009,
ORTB,Tillamook Bay,45.5167,-123.8833,1445,17.622,2009,
LASC,Sweet Lake-Cameron Prairie N.W.R.,30.0373,-93.0875,1351,20.7846,2009,
TXVI,Victoria,28.8723,-97.0784,1315,15.0286,2009,
ILCE,Carlyle Lake,38.7,-89.2667,1312,24.0734,2009,
VAWA,Walkerton,37.6809,-77.0313,1308,13.5544,2009,
ORBR,Brownsville,44.3536,-122.9671,1235,15.4859,2009,
OKTI,Tishomingo N.W.R.,34.1833,-96.65,1234,19.2813,2009,
CASJ,San Jose,37.4033,-121.8821,1198,4.8998,2009,
CALC,Lincoln,38.8704,-121.3919,1152,7.7315,2009,
NCBP,Bodie-Pea Island,35.7824,-75.5458,1055,11.7222,2009,
CAOC,Orange County (coastal),33.6725,-117.9453,982,2.9668,2009,
FLMI,Merritt Island N.W.R.,28.6171,-80.6815,970,8.6607,2009,
VACI,Chincoteague N.W.R.,37.9672,-75.3669,935,11.9872,2009,
CASH,Salton Sea (north),33.5179,-116.1031,931,13.021,2009,
UTFS,Fish Springs N.W.R.,39.8107,-113.399,900,30,2009,
TXGF,Guadalupe River Delta-McFaddin Family Ranches,28.533,-96.8635,890,3.1673,2009,
CAMR,Morro Bay,35.3,-120.7767,819,3.9709,2009,
WAPT,Port Townsend,48.05,-122.7333,804,9.6287,2009,
BCDU,Duncan,48.7882,-123.6714,800,6.0952,2009,
TXRO,Rockport,28.0669,-97.1167,759,12.3918,2009,
CAMC,Marin County (southern),37.9214,-122.5643,728,2.1829,2009,
CATO,Thousand Oaks,34.1489,-118.9699,718,4.3253,2009,
LASA,Sabine N.W.R.,29.8545,-93.3892,700,9.2105,2009,
TNCC,Cross Creeks N.W.R.,36.476,-87.7528,675,10.5469,2009,
WAOH,Oak Harbor,48.2646,-122.6805,641,5.8673,2009,
ALWH,Wheeler N.W.R.,34.6001,-86.8837,634,7.3721,2009,
UTSL,Salt Lake City,40.7695,-111.8884,626,5.7563,2009,
TXBZ,Brazos Bend,29.3734,-95.6688,618,5.9139,2009,
CASL,San Jacinto Lake,33.8745,-117.1239,595,8.2639,2009,
NCPD,Pee Dee N.W.R.,35.1167,-80.05,587,20.2414,2009,RN
WASJ,San Juan Islands Archipelago,48.5462,-123.013,583,4.3589,2009,
CASD,San Diego,32.6473,-117.117,569,2.1152,2009,
NJOC,Oceanville,39.4422,-74.4605,550,10.8374,2009,
CALH,Lake Henshaw,33.2112,-116.7255,546,7.4795,2009,
CARS,Rancho Santa Fe,33.0003,-117.1628,543,2.3816,2009,
TXAR,Aransas N.W.R.,28.2333,-96.8833,531,5.31,2009,
LALT,Lacassine N.W.R.-Thornwell,30.0626,-92.8147,531,4.6074,2009,
CAPA,Palo Alto,37.4064,-122.1559,529,2.2559,2009,
WACC,Cowlitz-Columbia,46.1092,-122.9787,523,12.9136,2009,
AZPR,Prescott,34.5419,-112.4701,509,2.7219,2009,
WAWK,Wahkiakum,46.1917,-123.4667,487,6.9571,2009,
TXFR,Freeport,29.0172,-95.3551,471,1.7674,2009,
BCPA,Port Alberni,49.2573,-124.814,457,16.4685,2009,
MOHF,(Horton) Four Rivers,38.02,-94.357,454,10.0889,2009,
CODV,Denver (urban),39.7347,-104.8753,440,3.2897,2009,
CASC,Santa Cruz County,37.0162,-122.0499,412,1.8496,2009,
BCVA,Vancouver,49.2603,-123.105,412,0.9654,2009,
WAKA,Kent-Auburn,47.3598,-122.1787,401,3.314,2009,
BCPL,Port Clements,53.6346,-132.2129,388,25.0323,2009,
TXSR,Sea Rim S.P.,29.7334,-93.9563,387,5.5286,2009,
MDSD,Southern Dorchester County,38.3617,-76.0371,367,3.7259,2009,
MSEL,Eagle Lake,32.5458,-90.58,351,7.4681,2009,
WAGH,Grays Harbor,46.9667,-124.05,334,3.4611,2009,
MXRE,"Rancho el Palomino, Chihuahua, Mexico",29.5823,-106.2827,320,37.6471,2009,
ILRL,Rend Lake,38.1324,-88.9677,317,5.8704,2009,
CALS,Los Baños,37.0612,-120.8849,315,6.0577,2009,
AZAV,Avra Valley,32.2501,-111.25,304,5.2641,2009,
MSNA,Natchez,31.6167,-91.3792,300,10.7143,2009,
DECH,Cape Henlopen-Prime Hook,38.8072,-75.1878,299,2.8009,2009,
ORCE,Columbia Estuary,46.2192,-123.9461,282,4.5484,2009,
CAMD,Moss Landing,36.897,-121.7407,282,1.2051,2009,
ALEU,Eufaula N.W.R.,31.9939,-85.0886,280,13.3333,2009,
NMLA,Lakes Avalon-Brantley,32.5661,-104.294,275,5.9459,2009,
AZNO,Nogales,31.4338,-110.9358,248,3.2632,2009,
DEBH,Bombay Hook N.W.R.,39.2152,-75.4822,234,2.34,2009,
SCWB,Winyah Bay,33.2458,-79.2292,224,2.6047,2009,
ORSU,Summer Lake,42.9731,-120.7778,211,7.0333,2009,
CAOV,Oceanside-Vista-Carlsbad,33.1903,-117.2796,209,0.8708,2009,
IDBR,Bruneau,42.9252,-115.858,207,4.6,2009,
NLSJ,St. Johns,47.5833,-52.7239,200,3.125,2009,
NMCV,Clovis,34.4194,-103.1698,197,19.7,2009,
BCAM,Abbotsford-Mission,49.1136,-122.3031,192,2.1513,2009,
TXST,San Antonio,29.3148,-98.608,191,0.6304,2009,
CORO,Rocky Ford,38.1326,-103.679,190,5.5072,2009,
MSAL,Arkabutla Lake,34.7624,-90.1306,188,7.8333,2009,
CALU,La Purisima,34.6616,-120.5368,180,3.1858,2009,
COBL,Barr Lake,39.9721,-104.6955,180,5.2941,2009,
ILCY,Cypress Creek,37.319,-89.0213,175,2.3102,2009,
CACS,Crystal Springs,37.5184,-122.3751,175,0.5295,2009,
TXBR,Brazoria-Columbia Bottomlands,29.1521,-95.5657,174,2.122,2009,
AZMY,Martinez Lake-Yuma,32.8884,-114.4623,161,1.8295,2009,
MSWC,Washington County (south),33.097,-90.9857,160,4.2105,2009,
CAES,Escondido,33.1025,-116.9403,159,1.252,2009,
TXFW,Fort Worth,32.7661,-97.4715,158,15.8,2009,
CAAR,Arcata,40.8653,-124.1565,149,1.0223,2009,
TXVC,Village Creek Drying Beds,32.7667,-97.1167,148,3.1158,2009,
MXCR,"Colorado River Delta, Sonora, Mexico",31.5503,-114.5203,147,15.4737,2009,
CATL,Tule Lake,41.9465,-121.539,144,3.1823,2009,
NMFA,Farmington,36.7833,-108.102,144,2.7429,2009,
BCCO,Comox,49.6726,-124.9287,136,1.8255,2009,
OKWA,Washita N.W.R.,35.6495,-99.2797,134,3.1163,2009,
ARBD,Bayou DeView,34.872,-91.2917,134,2.7487,2009,
MXMD,"Madera, Chihuahua, Mexico",29.1613,-108.1317,134,16.75,2009,
ORYB,Yaquina Bay,44.5866,-124.0642,130,2.08,2009,
ARPB,Pine Bluff,34.2295,-92.0033,127,2.3196,2009,
BCNB,Nanoose Bay,49.285,-124.1357,127,2.3091,2009,
VAFB,Fort Belvoir,38.709,-77.1939,125,0.3788,2009,
ORSA,Salem,44.9437,-123.0388,118,1.3486,2009,
TXHA,Hagerman N.W.R.,33.7807,-96.7444,117,2.0987,2009,
IDAF,American Falls Reservoir,42.9833,-112.7,116,3.8667,2009,
TXBP,Bolivar Peninsula,29.5504,-94.4668,114,2.1111,2009,
MXES,"Ensenada, Baja California, Mexico",31.8002,-116.6335,109,1.2111,2009,
WALP,Leadbetter Point,46.5605,-123.9894,108,2.4134,2009,
NCPE,Pettigrew S.P.,35.7667,-76.45,105,3.75,2009,
NMSE,Sevilleta N.W.R.,34.3167,-106.95,105,3.2308,2009,
NCCH,Cape Hatteras,35.2188,-75.6067,103,1.1839,2009,
COGR,Greeley,40.3936,-104.6801,100,1.8182,2009,
BCNN,Nanaimo,49.1668,-123.9333,99,0.5946,2009,
CAOA,Oakland,37.8146,-122.233,99,0.2754,2009,
TXSB,San Bernard N.W.R.,28.8667,-95.5667,99,0.6828,2009,
BCPQ,Parksville-Qualicum Beach,49.3458,-124.36,98,1.0026,2009,
RINC,Newport County-Westport,41.5369,-71.1566,96,0.7399,2009,
CACH,China Lake,35.6518,-117.7056,95,1.6102,2009,
TXOR,Old River,29.8776,-94.7263,90,1.6981,2009,
TXLS,La Sal Vieja,26.4849,-97.9649,90,0.7792,2009,
CAPC,Putah Creek,38.481,-122.0306,89,0.5435,2009,
WAML,Moses Lake,47.1381,-119.3214,89,2.2532,2009,
AZSV,Salt Verde River,33.639,-111.616,88,0.5596,2009,
NMCA,Caballo,32.953,-107.3122,87,1.5676,2009,
LALA,Lafayette,30.1901,-92.1042,85,1.2687,2009,
IDBH,Buhl,42.63,-114.82,85,5.3125,2009,
TXMN,McNary,31.2682,-105.7871,85,2.7419,2009,
TXNB,New Braunfels,29.7,-98.1167,84,1.6154,2009,
TXPP,Palo Pinto,32.7578,-98.2933,80,6.9565,2009,
MIAB,Anchor Bay,42.6273,-82.6647,80,0.6426,2009,
BCCH,Chilliwack,49.1113,-121.9436,80,1,2009,
KSLS,Liberal-Seward County,37.1222,-100.8574,77,8.5556,2009,
TXMI,Midland,31.95,-102.0333,76,1.3333,2009,
ARWR,White River N.W.R.,34.3146,-91.121,75,3.0303,2009,
AZGC,Glen Canyon,36.9167,-111.5167,73,2.0857,2009,
BCDB,Deep Bay,49.4657,-124.7362,72,2.25,2009,
WATO,Toppenish N.W.R.,46.3609,-120.4179,70,1.1864,2009,
HIKU,Moloka'i: Kualapu'u,21.1333,-157.0167,69,5.75,2009,
CALR,Lake Almanor,40.2833,-121.25,68,1.8255,2009,
NYSN,L.I.: Southern Nassau County,40.6298,-73.5907,68,0.3181,2009,
KSQU,Quivira N.W.R.,38.15,-98.4833,64,1.5238,2009,
CARB,Red Bluff,40.2074,-122.2117,62,0.8671,2009,
MDJB,Jug Bay,38.7532,-76.6415,61,2.3922,2009,
AZEL,Elfrida,31.6667,-109.6833,60,1.8182,2009,
TXKI,Kingsville,27.4658,-97.8551,60,0.9023,2009,
LACL,Cheneyville-Lecompte,31.1,-92.3667,60,1.8462,2009,
AZRC,Ramsey Canyon,31.4599,-110.2068,58,0.3553,2009,
CAON,Orange County (northeastern),33.7145,-117.6776,58,0.2468,2009,
CAEC,East Contra Costa County,37.9118,-121.678,57,0.3986,2009,
COCR,Crook,40.8833,-102.7167,57,1.3735,2009,
INGP,Goose Pond,38.9678,-87.1864,56,0.6005,2009,
ORUT,Utopia,44.4821,-121.1937,56,2.24,2009,
ORPD,Portland,45.5167,-122.7,56,0.2305,2009,
CALB,Long Beach-el Dorado,33.8533,-118.0908,55,0.2683,2009,
WAKC,Kitsap County,47.6323,-122.6609,54,9,2009,
NMLO,Loving,32.291,-104.0667,50,1.0152,2009,
ORDA,Dallas,44.8965,-123.3384,50,0.8734,2009,
TXBC,Balcones Canyonlands,30.6042,-98.0179,50,0.5051,2009,
RISK,South Kingstown,41.4295,-71.5588,49,0.4404,2009,
TXAU,Austin,30.1834,-97.698,49,0.2133,2009,
TXWW,Welder Wildlife Refuge,28.1136,-97.4171,48,1.0323,2009,
TXCK,Choke Canyon,28.4913,-98.3082,48,0.6,2009,
NYSM,L.I.: Smithtown,40.9133,-73.1386,47,0.6104,2009,
TXAB,Abilene,32.3501,-99.7502,47,0.9216,2009,
COJM,John Martin Reservoir,38.058,-103.033,46,0.8889,2009,
TXAZ,Anzalduas-Bentsen,26.2235,-98.3944,45,0.3346,2009,
NVHE,Henderson,36.0833,-114.95,44,2.1463,2009,
WAEA,East Lake Washington,47.5899,-121.9995,43,5.375,2009,
TXUC,Uvalde County,29.2096,-99.7862,43,1.6538,2009,
AZGV,Green Valley-Madera Canyon,31.7923,-110.9151,43,0.2638,2009,
TXBN,Burnet County,30.7514,-98.275,42,0.5619,2009,
CADM,Diamond Valley,33.627,-117.018,40,5,2009,
MTTF,Three Forks,45.8451,-111.5552,40,1.3559,2009,
OKOC,Oklahoma City,35.5368,-97.5834,40,0.3019,2009,
NJCC,Cumberland County,39.3325,-75.2004,39,0.2699,2009,
NJBA,Barnegat,39.6667,-74.1667,38,0.4524,2009,
NMLV,Las Vegas,35.595,-105.2152,37,0.8706,2009,
CACM,Claremont,34.1384,-117.7073,37,0.3663,2009,
IDHV,Hagerman Valley,42.8167,-114.9,36,0.6486,2009,
OHCH,Chandlersville,39.8502,-81.7999,36,0.9,2009,
IDTF,Twin Falls,42.5565,-114.4635,36,0.8,2009,
HIWO,O'ahu: Waipi'o,21.4618,-158.0128,36,0.9664,2009,
CNSA,"Saipan, C.N.M.I.",15.1991,145.7506,36,1.2308,2009,
CACW,Caswell-Westley,37.6061,-121.174,36,0.6316,2009,
ILNE,Newton,38.0441,-88.3181,35,0.6512,2009,
MSNO,Noxubee N.W.R.,33.2711,-88.7837,35,0.5556,2009,
TXCT,Coastal Tip,26.0278,-97.2334,35,3.3333,2009,
NJCM,Cape May,39.0123,-74.8778,34,0.156,2009,
MXLC,"Laguna de Chapala, Jalisco, Mexico",20.3,-103.283,34,1.4167,2009,
WATC,Tri-Cities,46.2357,-119.1805,33,0.2895,2009,
MXPP,"Puerto Penasco, Sonora, Mexico",31.3501,-113.5167,33,0.8919,2009,
MANE,Newburyport,42.7398,-70.8987,32,0.2085,2009,
BCCR,Campbell River,49.9666,-125.2088,32,0.3469,2009,
WATA,Tacoma,47.2335,-122.5167,31,0.2505,2009,
DERE,Rehoboth,38.6035,-75.1073,31,0.3307,2009,
TXLG,Longview,32.3765,-94.7162,30,0.3647,2009,
NJMA,Marmora,39.2647,-74.6472,30,0.9091,2009,
ILCO,Crab Orchard N.W.R.,37.7196,-89.0212,30,0.6522,2009,
VABB,Back Bay N.W.R.,36.65,-76,29,0.3152,2009,
TXDR,Del Rio,29.4651,-100.9585,28,0.7,2009,
COCS,Colorado Springs,38.8022,-104.8167,27,0.1695,2009,
FLZE,Zellwood-Mount Dora,28.7309,-81.6062,27,0.2109,2009,
FLGA,Gainesville,29.6027,-82.3127,27,0.1072,2009,
MDOC,Ocean City,38.3128,-75.2122,27,0.1197,2009,
AZTV,Tucson Valley,32.3016,-110.9735,27,0.1688,2009,
AZPT,Phoenix-Tres Rios,33.3725,-112.3582,26,0.214,2009,
TXKV,Kerrville,30.0646,-99.1757,26,0.4333,2009,
CAEL,Eagle Lake,40.6299,-120.7518,26,0.4094,2009,
TXQN,Quanah,34.3285,-99.6831,25,0.5319,2009,
TXCO,Comstock,29.7104,-101.2531,24,0.5079,2009,
ONLP,Long Point,42.6211,-80.3908,24,0.1538,2009,
NVPL,Pyramid Lake,39.944,-119.5102,24,0.7164,2009,
TXBA,Balmorhea,30.9858,-103.7459,24,1.0213,2009,
CAFR,Fall River Mills,41.0616,-121.4899,24,0.3825,2009,
HILA,Laysan Island,25.7691,-171.7331,23,4.381,2009,
ORPO,Port Orford,42.8196,-124.4828,23,0.3286,2009,
LADA,D'Arbonne,32.6583,-92.241,23,0.3966,2009,
TXHO,Houston,29.7497,-94.9492,23,0.2987,2009,
ILHL,Horseshoe Lake,37.2089,-89.3311,23,0.3172,2009,
TXPM,Palmetto S.P.,29.5833,-97.5833,21,0.2772,2009,
ILPM,Pere Marquette Park,38.9968,-90.6051,21,0.4,2009,
TNRL,Reelfoot Lake,36.4167,-89.3833,21,0.4352,2009,
BCSS,Sidney-South Saltspring,48.6956,-123.4278,21,0.175,2009,
CASO,San Bernardino Valley,34.0852,-117.301,20,0.2247,2009,
TXSA,Santa Ana N.W.R.,26.1492,-98.1917,20,0.2192,2009,
TXCR,Crawford,31.556,-97.3556,20,0.3175,2009,
FLSM,St. Marks,30.1536,-84.2227,20,0.2564,2009,
COBR,Bonny Reservoir,39.6307,-102.1845,19,0.3762,2009,
ARLO,Lonoke,34.749,-91.8957,19,0.3276,2009,
MDLK,Lower Kent County,39.1427,-76.1921,19,0.2317,2009,
ILMI,Meredosia Island,39.8542,-90.5937,19,0.5758,2009,
ORRS,Roseburg-Sutherlin,43.3177,-123.3473,19,0.2901,2009,
MSSI,Sidon,33.3624,-90.2479,18,0.4737,2009,
CASB,Santa Barbara,34.4512,-119.7627,18,0.0467,2009,
MTST,Stevensville,46.513,-114.0922,18,0.2045,2009,
MSVI,Vicksburg,32.3108,-90.9068,18,0.2022,2009,
TXSG,San Angelo,31.4439,-100.4823,17,0.3049,2009,
ARCO,Conway,35.0916,-92.4227,17,0.1921,2009,
TXBS,Big Spring,32.2391,-101.4162,16,0.5333,2009,
ARHB,Holla Bend N.W.R.,35.166,-93.1382,16,0.2238,2009,
TXLU,Lubbock County,33.5849,-101.7925,16,0.2424,2009,
IDSV,Sun Valley,43.3081,-114.067,16,0.8889,2009,
ORFL,Florence,44.0334,-124.0667,16,0.1391,2009,
BCPM,Pitt Meadows,49.2839,-122.6729,15,0.088,2009,
VANW,Nassawadox,37.4373,-75.7859,15,0.2542,2009,
MOMI,Mingo N.W.R.,36.9833,-90.2,15,0.2479,2009,
LACR,Creole,29.8159,-93.1113,15,0.4839,2009,
OKNO,Norman,35.2655,-97.3767,14,0.1474,2009,
WYJH,Jackson Hole,43.5742,-110.7332,14,0.1867,2009,
TXLR,Lake Ray Hubbard,32.9296,-96.5363,14,0.28,2009,
TXCP,Chaparral W.M.A.,28.3609,-99.3429,14,0.7568,2009,
CAPS,Pasadena-San Gabriel Valley,34.1199,-118.0913,14,0,2009,
UTPR,Provo,40.2526,-111.6688,14,0.1085,2009,
NJMO,Moorestown,39.9422,-74.9391,14,0.1474,2009,
OKSC,Stephens County,34.5667,-97.7833,14,0.3146,2009,
MOCO,Columbia,38.8915,-92.3348,14,0.0848,2009,
TXLK,Lake Tawakoni,32.7667,-95.9167,13,0.2131,2009,
MAMC,Mid-Cape Cod,41.7004,-70.3002,12,0.1558,2009,
WASE,Seattle,47.6017,-122.3341,12,0.0392,2009,
MTWY,West Yellowstone,44.7992,-111.2958,12,0.4138,2009,
COPR,Pueblo Reservoir,38.2354,-104.7857,12,0.1616,2009,
ILBH,"Bird Haven Sanctuary, Olney",38.7529,-88.076,12,0.1951,2009,
TXBV,Brownsville,25.9328,-97.4748,12,0.1839,2009,
CASZ,Sonoma Valley,38.2931,-122.5037,12,0.0442,2009,
ONHA,Hamilton,43.2679,-79.8852,12,0.0619,2009,
TXGR,Granger,30.7062,-97.4019,11,0.131,2009,
AKCO,Cordova,60.5313,-145.6451,11,0.386,2009,
CASG,Santa Maria-Guadalupe,34.8833,-120.5833,11,0.2604,2009,
ARTE,Texarkana,33.4725,-93.9215,10,1,2009,
TXCC,Corpus Christi,27.8334,-97.5833,10,0.0897,2009,
ORUM,Umatilla County,45.6,-118.6667,10,0.1717,2009,
MXSC,"San Carlos, Sonora, Mexico",28.0389,-110.9377,10,0.8333,2009,
ORRD,Redmond,44.2635,-121.1195,10,0.1754,2009,
WYCO,Cody,44.4829,-109.0565,10,0.1434,2009,
VACC,Cape Charles,37.1899,-75.941,10,0.0694,2009,
AKTS,Tenakee Springs,57.7792,-135.2192,10,0.7692,2009,
SCSN,Santee N.W.R.,33.5104,-80.408,10,0.1111,2009,
ILUC,Union County,37.4676,-89.4048,10,0.1081,2009,
MACO,Concord,42.4333,-71.4333,9,0.0239,2009,
KSWI,Wichita,37.6912,-97.3496,9,0.1532,2009,
MIRO,Rockwood,42.0684,-83.2499,9,0.0933,2009,
NYNN,L.I.: Northern Nassau County,40.866,-73.5938,9,0.0841,2009,
NJTM,Trenton Marshes,40.1918,-74.7276,9,0.104,2009,
BCSI,Skidegate Inlet,53.2112,-131.9876,9,0.4286,2009,
COPE,Penrose,38.3907,-105.144,8,0.0976,2009,
OHKP,Killdeer Plains Wildlife Area,40.6436,-83.3619,8,0.2336,2009,
LABC,Bossier-Caddo-Bienville,32.2932,-93.5026,8,0.1569,2009,
SCHH,Hilton Head Island,32.2,-80.75,8,0.0324,2009,
MATM,Taunton-Middleboro,41.8691,-71.0324,8,0.1429,2009,
AZCH,Chino Valley,34.8001,-112.4,8,0.0958,2009,
WASI,Anacortes-Sidney,48.5833,-123.0006,8,0,2009,
CAUK,Ukiah,39.1386,-123.166,8,0.0627,2009,
CACO,Chico,39.722,-121.8238,8,0.1265,2009,
COGJ,Grand Junction,39.1208,-108.6081,8,0.0677,2009,
ONWG,West Elgin,42.6333,-81.5833,8,0.0444,2009,
WAVA,Vashon,47.4332,-122.5067,8,0.0565,2009,
ORPR,Prineville,44.3668,-120.75,8,0.1818,2009,
AZAH,Atascosa Highlands,31.4701,-111.1728,8,0.0348,2009,
HIHO,O'ahu: Honolulu,21.3692,-157.7874,8,0.2302,2009,
QCMO,Montreal,45.4525,-73.6443,8,0.0658,2009,
NSHD,Halifax-Dartmouth,44.6096,-63.4947,8,0.0335,2009,
LATR,Tensas River N.W.R.,32.2833,-91.3667,8,0.2857,2009,
VANS,Northern Shenandoah Valley,39.0501,-78.1667,8,0.0547,2009,
NCGR,Greensboro,36.1163,-79.837,8,0.0879,2009,
COPU,Pueblo,38.1753,-104.5196,8,0.0947,2009,
AZGR,Gila River,33.3071,-112.6833,7,0.0447,2009,
CODE,Denver,39.587,-105.143,7,0.036,2009,
BCSQ,Squamish,49.7309,-123.1452,7,0.1167,2009,
MXCC,"La Cienega de Chapala, Jalisco, Mexico",20.212,-102.6844,7,0.7,2009,
TXEP,El Paso,31.7828,-106.4798,7,0.1414,2009,
PEPE,Prince Edward Island N.P.,46.3817,-63.1325,7,0.2276,2009,
CAMS,Mount Shasta,41.5342,-122.4141,7,0.0952,2009,
IDNA,Nampa,43.568,-116.6729,7,0.0583,2009,
LAPP,Pine Prairie,30.7643,-92.3765,7,0.1677,2009,
OHQH,Quail Hollow-Hartville,40.978,-81.2829,7,0.112,2009,
MTBG,Bigfork,48.0952,-114.0888,7,0.0833,2009,
NCHC,Henderson County,35.343,-82.553,7,0.0875,2009,
ALDI,Dauphin Island,30.3385,-88.1284,7,0.0972,2009,
NSCS,Cape Sable Island,43.4834,-65.6167,6,0.15,2009,
TXRL,Robert Lee,31.9161,-100.4999,6,0.375,2009,
TNCH,Chattanooga,35.104,-85.2292,6,0.1053,2009,
OKSE,Sequoyah,34.4985,-94.9695,6,0.2353,2009,
ONOW,Oshawa,43.9085,-78.8141,6,0.0488,2009,
ONWO,Woodhouse Township,42.8595,-80.2202,6,0.048,2009,
MAMV,Martha's Vineyard,41.3571,-70.5207,6,0.07,2009,
NYOR,L.I.: Orient,41.107,-72.3346,6,0.0514,2009,
TXWA,Waco,31.5194,-97.0451,6,0.1071,2009,
PALZ,Lititz,40.2261,-76.3024,6,0.0478,2009,
ILBL,Baldwin Lake-Kaskaskia River Valley,38.2858,-89.8397,6,0.2182,2009,
CACN,Carpinteria,34.4303,-119.4839,6,0.1154,2009,
TXSJ,San Jacinto Wilderness,30.1672,-95.0967,6,0.1341,2009,
ILFB,Fermilab-Batavia,41.8605,-88.2628,6,0.0324,2009,
VALC,Little Creek,36.8508,-76.0994,6,0.075,2009,
CACC,Contra Costa County,37.9538,-121.9923,6,0.0254,2009,
TNKN,Knoxville,35.9136,-84.0796,6,0.0462,2009,
MXEP,"Ensenada de La Paz, BCS, Mexico",24.11,-110.42,5,0.2439,2009,
TXGA,Galveston,29.3333,-94.8333,5,0.0541,2009,
CAEN,Elsinore,33.6667,-117.3331,5,0.2532,2009,
HIMA,Midway Atoll,28.2018,-177.3806,5,0.7692,2009,
COHO,Hotchkiss,38.7694,-107.7646,5,0.1786,2009,
OKHR,Hulah Reservoir,36.9289,-96.0873,5,0.0909,2009,
PALG,Lewisburg,40.9397,-76.9841,5,0.0543,2009,
GASV,"Savannah, GA-SC",32.0842,-81.0667,5,0.0282,2009,
WACK,Columbia Hills-Klickitat Valley,45.7667,-120.7833,5,0.1307,2009,
UTSR,Silver Reef,37.2531,-113.3675,5,0.0676,2009,
NENP,North Platte,41.1167,-100.7999,5,0.5128,2009,
OHLE,Lake Erie Islands,41.6807,-82.7545,5,0.119,2009,
ORME,Medford,42.4026,-122.8559,5,0.0406,2009,
BCKA,Kamloops,50.6694,-120.398,5,0.0694,2009,
TXDA,Dallas County,32.8258,-96.8312,5,0.0495,2009,
AKGB,Glacier Bay,58.4506,-135.8721,5,0.1639,2009,
ORUC,Union County,45.25,-117.8833,5,0.0673,2009,
OHHR,Hoover Reservoir,40.1905,-82.9412,5,0.0631,2009,
WYBH,Bates Hole,42.5833,-106.5,5,0.1471,2009,
TXWF,Wichita Falls,33.8877,-98.6298,4,0.1553,2009,
ONBL,Blenheim,42.3403,-81.9372,4,0.036,2009,
INLM,Lake Monroe,39.0152,-86.3984,4,0.0432,2009,
CAMN,Manchester,39.0347,-123.6897,4,0.0387,2009,
NVRL,Ruby Lake,40.2,-115.5,4,0.1311,2009,
MTHE,Helena,46.6833,-111.9833,4,0.0556,2009,
NVTM,Truckee Meadows,39.4679,-119.8205,4,0.0468,2009,
CAAA,Auburn,38.9758,-121.1438,4,0.0316,2009,
BCMA,Greater Masset,54.0464,-132.1903,4,0.0958,2009,
MTKA,Kalispell,48.2404,-114.3305,4,0.0343,2009,
NJLH,Lower Hudson,40.7751,-74.0009,4,0.0398,2009,
NYQW,L.I.: Quogue-Watermill,40.8591,-72.4524,4,0.0672,2009,
CALN,Lancaster,34.7043,-118.086,4,0.0482,2009,
MAPL,Plymouth,41.8733,-70.6012,4,0.0606,2009,
MIMW,Muskegon Wastewater,43.2642,-85.9481,4,0.125,2009,
IDLE,Lewiston-Clarkston,46.414,-116.952,4,0.0751,2009,
MEPA,Greater Portland,43.5858,-70.2242,4,0.0342,2009,
TXBU,Bell County,30.9667,-97.45,4,0.0721,2009,
NSWO,Wolfville,45.0853,-64.3863,4,0.0251,2009,
MDCR,Crisfield,38.0298,-75.7577,4,0.0422,2009,
MACC,Cape Cod,41.7207,-69.9968,4,0.0428,2009,
AZCV,Camp Verde,34.5873,-111.7545,4,0.0833,2009,
SCNG,North Greenville,35.0097,-82.3458,4,0.0653,2009,NC
MTMI,Missoula,46.9132,-114.0343,3,0.0269,2009,
CORA,Rawhide Energy Station,40.8628,-105.1431,3,0.1875,2009,
NMCM,Cimarron,36.2927,-104.5324,3,0.3529,2009,
CAML,Mono Lake,37.9561,-119.1201,3,0.055,2009,
RINT,"Napatree, RI-CT-NY",41.3222,-71.8167,3,0.0405,2009,
IDRE,Rexburg,43.7973,-111.8578,3,0.0833,2009,
ORWC,Wallowa County,45.3748,-117.2009,3,0.0968,2009,
MABB,Buzzards Bay,41.6517,-70.6206,3,0.0393,2009,
QCLO,Longueuil,45.6536,-73.4901,3,0.046,2009,
UTOG,Ogden,41.2198,-112.064,3,0.0612,2009,
DEMF,Milford,38.9595,-75.4275,3,0.0462,2009,
IDPO,Pocatello,42.8676,-112.4301,3,0.0526,2009,
TXFD,Falcon Dam and S.P.,26.4967,-99.0884,3,0.0968,2009,
MACM,Cobble Mountain,42.1,-72.8333,3,0.0441,2009,
CAMJ,Mojave River Valley,34.5071,-117.2689,3,0.0541,2009,
WYCR,Crowheart,43.3672,-109.2796,3,0.1132,2009,
BCHR,Harrison River,49.3163,-121.8499,3,0.0663,2009,
ARAR,Arkadelphia,34.1333,-93.05,3,0.0411,2009,
NJLB,Long Branch,40.2502,-74.0554,3,0.0305,2009,
CABA,Bakersfield,35.4311,-118.9173,3,0.0333,2009,
BCSO,Sooke,48.3442,-123.6719,3,0.0291,2009,
ILCT,Clinton Lake,40.1668,-88.7999,3,0.0795,2009,
CAKR,Kern River Valley,35.6625,-118.4588,3,0.0275,2009,
NVFA,Fallon,39.3965,-118.773,3,0.0674,2009,
ILCC,Champaign County,40.0551,-88.1145,3,0.0674,2009,
ILLA,Lisle Arboretum,41.7518,-87.9738,3,0.0166,2009,
NMLC,Las Cruces,32.3,-106.7167,3,0.0307,2009,
NJGS,Great Swamp-Watchung Ridges,40.6983,-74.4017,3,0.055,2009,
NJSA,Salem,39.614,-75.4142,3,0.169,2009,
OKTU,Tulsa,36.3221,-95.9022,2,0.0217,2009,
NYCA,L.I.: Captree,40.7038,-73.2493,2,0.018,2009,
NHLD,Lee-Durham,43.1667,-70.9833,2,0.0172,2009,
KSWR,Webster Reservoir,39.4231,-99.4064,2,0.1176,2009,
TNNL,Nickajack Lake,35.0664,-85.5113,2,0.0506,2009,
KSUW,Udall-Winfield,37.2647,-96.9756,2,0.0412,2009,
NVMD,Minden,38.9542,-119.7647,2,0.0233,2009,
SDPI,Pierre,44.367,-100.3463,2,0.0328,2009,
NYSI,Staten Island,40.5833,-74.15,2,0.0229,2009,
MIMO,Monroe,41.8731,-83.4425,2,0.0406,2009,
FRPM,Saint-Pierre et Miquelon Islands,47.0169,-56.3,2,0.0741,2009,
MSGR,Grenada,33.8051,-89.7016,2,0.0571,2009,
MAQU,Quincy,42.2167,-70.9333,2,0.0218,2009,
TNBI,Bristol,36.6058,-82.0999,2,0.037,2009,
MSSL,Sardis Lake,34.47,-89.7222,2,0.0559,2009,
AKUN,Unalaska Island,53.895,-166.5422,2,0.0635,2009,
NJBP,Belleplain,39.25,-74.9333,2,0.0362,2009,
CAMF,Milburn-Fresno,36.7788,-119.935,2,0.1067,2009,
WABR,Bridgeport,48.0184,-119.6898,2,0.037,2009,
NCSL,Southern Lake Norman,35.4424,-80.8689,2,0.0254,2009,
NJBO,Boonton,40.85,-74.3833,2,0.0142,2009,
NCKH,Kitty Hawk,36.031,-75.7185,2,0.0305,2009,
AKWI,Wrangell Island,56.4167,-132.35,2,0.0952,2009,"nc, nd"
MASP,Springfield,42.1294,-72.5089,2,0.0187,2009,
IASC,Sioux City,42.4914,-96.4072,2,0.0205,2009,
KSPA,Parsons,37.4643,-95.2528,2,0.32,2009,
PALN,Linesville,41.6028,-80.4296,2,0.0364,2009,
ABHR,High River,50.5816,-113.8693,2,0.0263,2009,
MXCL,"Colonias de Perritos Llanero de Coahuila, Mexico",25.03,-101.4456,2,0.381,2009,
CAWS,Western Sonoma County,38.3853,-123.0306,2,0.0067,2009,
MEBP,Bath-Phippsburg-Georgetown,43.7803,-69.7443,2,0.043,2009,
NSPI,Pictou Harbour,45.6834,-62.6167,2,0.0377,2009,
NSLU,Lunenburg,44.4067,-64.2583,2,0.036,2009,
MNSP,St. Paul (north),45.0062,-93.1262,2,0.0177,2009,
LAGI,Grand Isle,29.1996,-90.0458,2,0.039,2009,
PABU,Butler County,40.9811,-80.0714,2,0.0328,2009,
MEEA,Eastport,44.9059,-66.9852,2,0.0988,2009,
CALL,Lost Lake-Fresno,36.95,-119.7,2,0.0245,2009,
WYSH,Sheridan,44.8086,-106.9758,2,0.0667,2009,
AZBW,Bill Williams Delta,34.3002,-114.0928,2,0.0288,2009,
BANP,"New Providence Island, Bahamas",25.0541,-77.3968,2,0.046,2009,
NSSY,The Sydneys,46.1791,-60.2923,2,0.0408,2009,
HIKA,Kaua'i: Kapa'a,22.15,-159.4167,2,0.0769,2009,
BCSC,Sunshine Coast,49.4668,-123.6167,2,0.0316,2009,
NYCT,Catskill-Coxsackie,42.2871,-73.8823,2,0.025,2009,
UTLO,Logan,41.7993,-111.8333,2,0.0175,2009,
COBO,Boulder,40.0256,-105.2725,2,0.0065,2009,
WYRT,Riverton,43.0246,-108.3806,2,0.0602,2009,
OHLK,Lakewood,41.4602,-81.8576,2,0.0302,2009,
PAWS,Washington,40.1288,-80.2099,2,0.1159,2009,
COFC,Fort Collins,40.6454,-105.1141,2,0.015,2009,
BCGS,Galiano-North Saltspring,48.9069,-123.4589,2,0.0175,2009,
COLV,Loveland,40.4077,-105.1653,2,0.0231,2009,
CTSM,Stratford-Milford,41.1742,-73.1099,2,0.0208,2009,
TNWH,White County,35.9082,-85.598,2,0.0304,2009,
NJRE,Raritan Estuary,40.5167,-74.35,2,0.0132,2009,
LANO,New Orleans,30.0236,-89.9167,1,0.0129,2009,
KSTO,Topeka,39.0483,-95.6779,1,0.0127,2009,
ARFA,Fayetteville,36.0566,-94.1719,1,0.0126,2009,
ONCC,Cedar Creek,42.0694,-82.8727,1,0.0111,2009,
KSLA,Lawrence,38.9933,-95.3111,1,0.0108,2009,
MOCF,Confluence,38.8224,-90.2433,1,0.0172,2009,
MANO,Northampton,42.3439,-72.6028,1,0.0036,2009,
CASF,San Francisco,37.7143,-122.4689,1,0.0051,2009,
ALMO,Montgomery,32.3496,-86.3831,1,0.0217,2009,
COWF,Weldona-Fort Morgan,40.3422,-103.8568,1,0.027,2009,
OHCS,Caesar Creek-Spring Valley,39.501,-84.0224,1,0.006,2009,
UTJR,Jordan River,40.4526,-111.9135,1,0.0185,2009,
FLNP,North Pinellas,28.0672,-82.7388,1,0.0065,2009,
ONAI,Amherst Island,44.0927,-76.6757,1,0.04,2009,
VAWR,Warren,37.85,-78.55,1,0.0147,2009,
CTOL,Old Lyme-Saybrook,41.2924,-72.427,1,0.0159,2009,
MSJC,Jackson County,30.4366,-88.7119,1,0.0139,2009,
OHTO,Toledo,41.65,-83.5333,1,0.0118,2009,
CASR,Santa Rosa,38.4379,-122.7116,1,0.0069,2009,
COSL,Sterling,40.6966,-103.2219,1,0.0323,2009,
RIBI,Block Island,41.2324,-71.5777,1,0.0241,2009,
TXWS,Weslaco,26.1507,-97.9421,1,0.0071,2009,
BEBE,Bermuda,32.3058,-64.7585,1,0.0143,2009,
IADM,Des Moines,41.6004,-93.7037,1,0.0294,2009,
TXLV,Lewisville,33.0301,-96.9929,1,0.022,2009,
TXBF,Buffalo Bayou,29.7715,-95.5699,1,0.0067,2009,PH
INJC,Johnson County,39.4103,-86.0668,1,0.0252,2009,
CTWR,Woodbury-Roxbury,41.5352,-73.2791,1,0.0083,2009,
MNFF,Fergus Falls,46.2804,-96.0746,1,0.0227,2009,
KSHN,Halstead-Newton,38.0599,-97.4338,1,0.0192,2009,
ONNS,Lakeshore,42.2926,-82.8197,1,0.0286,2009,
SDSF,Sioux Falls,43.5621,-96.7115,1,0.0175,2009,
CTHA,Hartford,41.766,-72.6727,1,0.0046,2009,
WVON,Ona,38.506,-82.1902,1,0.0157,2009,
FLPE,Pensacola,30.4474,-87.1548,1,0.0096,2009,
FLCB,Choctawhatchee Bay,30.4462,-86.5182,1,0.0085,2009,
INTI,Tippecanoe,41.3237,-85.7887,1,0.0244,2009,
CAVE,Ventura,34.3484,-119.1921,1,0.0082,2009,
VANR,Nansemond River,36.8472,-76.4333,1,0.0104,2009,
NSBC,Broad Cove,44.2333,-64.4472,1,0.0139,2009,
FLAB,Aripeka-Bayport,28.4667,-82.5833,1,0.0118,2009,
MEFB,Freeport-Brunswick,43.8229,-70.0268,1,0.0185,2009,
KSAC,Arkansas City,37.0382,-97.0393,1,0.0364,2009,
INWG,Western Gibson County,38.3406,-87.7807,1,0.0213,2009,
QCOP,Otterburn Park,45.5481,-73.2098,1,0.0159,2009,
IDBO,Boise,43.6177,-116.1995,1,0.0103,2009,
CAWB,Wallace-Bellota,38.1167,-120.9833,1,0.0095,2009,
UTBR,Bear River Migratory Bird Refuge,41.4804,-112.2675,1,0.08,2009,
TXNA,Nacogdoches,31.5332,-94.6563,1,0.0078,2009,
ONBP,Bruce Peninsula N.P.,45.2043,-81.5784,1,0.0147,2009,gd
CTGS,Greenwich-Stamford,41.0826,-73.6138,1,0.0056,2009,
MESP,Schoodic Point,44.4278,-68.1076,1,0.0351,2009,
CAPP,Palos Verdes Peninsula,33.7723,-118.3279,1,0.0053,2009,
SCPW,Pinewood,33.7394,-80.4825,1,0.0197,2009,
OHBC,Beaver Creek,40.7106,-80.666,1,0.0132,2009,
PAWL,Wild Creek-Little Gap,40.85,-75.4981,1,0.0263,2009,
NYRH,Rochester,43.2232,-77.6413,1,0.0076,2009,
MDCV,Chesterville,39.2762,-75.9153,1,0.0101,2009,
OHRU,Rudolph,41.3256,-83.6207,1,0.0145,2009,
MANF,New Bedford,41.6,-70.8667,1,0.0247,2009,
PAWN,Western Chester County,39.9369,-75.902,1,0.0091,2009,
NESC,Scottsbluff,41.8674,-103.6408,1,0.0357,2009,
NJLA,Lakehurst,40.0159,-74.1451,1,0.0167,2009,
DCDC,Washington,38.8674,-77.0685,1,0.0059,2009,
WIBR,Bridgeport,42.9889,-91.0305,1,0.0313,2009,
AKKO,Kodiak,57.75,-152.4833,1,0.012,2009,
ONKG,Kingston,44.206,-76.4611,1,0.009,2009,
SDYA,Yankton,42.9333,-97.3833,1,0.0213,2009,
ONSY,Strathroy,42.8931,-81.6133,1,0.0161,2009,
MOMA,Maryville,40.3463,-94.9198,1,0.037,2009,
ALGU,Guntersville,34.3883,-86.2803,1,0.0128,2009,
IASL,Spirit Lake,43.4226,-95.1023,1,0.0714,2009,
NYCS,L.I.: Central Suffolk County,40.8333,-72.7838,1,0.0105,2009,
CASV,San Fernando Valley,34.2358,-118.5025,1,0.0125,2009,
TXHG,Harlingen,26.177,-97.6813,1,0.0112,2009,
OHWH,Western Hamilton County,39.2065,-84.6361,1,0.0113,2009,
ARFS,Fort Smith-Moffett,35.3818,-94.3766,1,0.0426,2009,
WASP,Spokane,47.7151,-117.4112,1,0.0059,2009,
ONSL,St. Clair N.W.A.,42.3667,-82.35,1,0.0162,2009,
BCKI,Kitimat,54.0592,-128.6777,1,0.0345,2009,
KSOP,Oskaloosa-Perry Lake,39.2014,-95.4032,1,0.0168,2009,
WAWE,Wenatchee,47.4551,-120.323,1,0.0127,2009,
MIDR,Detroit River,42.3447,-83.1132,1,0.0114,2009,
OHOS,O'Shaughnessy Reservoir,40.2167,-83.2167,1,0.0144,2009,
NYTR,Troy,42.8333,-73.6568,1,0.0153,2009,
ONSF,Stratford,43.3164,-80.9844,1,0.0241,2009,
NCWI,Wilmington,34.1401,-77.8936,1,0.01,2009,
OHWO,Wooster,40.7464,-82.0189,1,0.0104,2009,
MDRR,Rock Run,39.6041,-76.167,1,0.0087,2009,
NYOO,Oak Orchard Swamp,43.1517,-78.3904,1,0.0119,2009,
NCWS,Winston-Salem,36.084,-80.3067,1,0.0101,2009,
ILCS,Crane Lake-Sangamon,40.1233,-90.2323,1,0.0247,2009,
OHMI,Millersburg,40.5328,-81.9481,1,0.0036,2009,
OHOX,Oxford,39.5078,-84.7169,1,0.0278,2009,
CACL,Clear Lake,38.9392,-122.7199,1,0.0108,2009,
TNSV,Shady Valley-Mountain City,36.5001,-81.85,1,0.0308,2009,
NYJA,Jamestown,42.1095,-79.2284,1,0.0125,2009,
ONIN,Ingersoll,42.9994,-80.9338,1,0.0137,2009,
IAKE,Keokuk,40.4726,-91.4581,1,0.0175,2009,
ONGU,Guelph,43.5239,-80.2163,1,0.0071,2009,
MTLI,Libby,48.3833,-115.4667,1,0.0435,2009,
NELM,Lake McConaughy,41.2065,-101.724,1,0.0204,2009,
NYST,Schenectady,42.7449,-73.9268,1,0.0144,2009,
PAUB,Upper Bucks County,40.4036,-75.365,1,0.0104,2009,
FLSP,St. Petersburg,27.7991,-82.6794,1,0.0084,2009,
MDOA,Oakland,39.4936,-79.3658,1,0.0221,2009,
MOSC,Loess Bluffs (formerly Squaw Creek) N.W.R.,40.0833,-95.2667,1,0.0189,2009,
AZSC,Santa Catalina Mountains,32.3353,-110.7295,1,0.0137,2009,
MDAC,Allegany County,39.5916,-78.6929,1,0.0267,2009,
NYBR,L.I.: Brooklyn,40.616,-73.9448,1,0.0111,2009,
ONNF,Niagara Falls,43.1667,-79.0667,1,0.0089,2009,
NCDU,Durham,36.0868,-78.8907,1,0.01,2009,
WIBL,Beloit,42.6137,-89.09,1,0.0235,2009,
NLFL,Ferryland,46.9927,-52.9123,1,0.0317,2009,
MAST,Sturbridge,42.1372,-72.0976,cw,0,2009,
MIBE,Beulah,44.6334,-86.1283,cw,0,2009,
OHWE,Wellington,41.15,-82.2,cw,0,2009,
AKJU,Juneau,58.3167,-134.55,cw,0,2009,
NYIT,Ithaca,42.4532,-76.4293,cw,0,2009,
NDGD,Garrison Dam,47.5119,-101.3264,cw,0,2009,
NYGE,Geneva,42.8667,-76.9833,cw,0,2009,
ILSP,Springfield,39.8,-89.65,cw,0,2009,
IDIM,Indian Mountain,47.3833,-116.0833,cw,0,2009,
OHHF,Hamilton-Fairfield,39.4004,-84.536,cw,0,2009,
ILKV,Kankakee Valley,41.1209,-87.8674,cw,0,2009,
MSDG,Dahomey-Great River Road,33.7769,-90.9545,cw,0,2009,
BCLL,Lillooet,50.679,-121.9328,cw,0,2009,
CODU,Durango,37.2001,-107.8119,cw,0,2009,
CAYR,Yreka,41.7495,-122.5247,cw,0,2009,
ONSU,Sutton,44.2276,-79.3945,cw,0,2009,
ORHR,Hood River,45.6167,-121.5667,cw,0,2009,
PAWC,West Chester,39.9667,-75.6,cw,0,2009,
GUDE,"Dededo, Guam",13.5502,144.85,cw,0,2009,
MNFA,Faribault,44.3632,-93.1914,cw,0,2009,
NJRA,Ramsey,41.0935,-74.2541,cw,0,2009,
FLHC,Hamilton County,30.336,-82.7595,cw,0,2009,
NYCH,Conesus-Hemlock-Honeoye Lakes,42.7776,-77.6161,cw,0,2009,
ONMI,Manitoulin Island,45.8567,-82.4447,cw,0,2009,
OKSL,Sooner Lake,36.4032,-97.0672,cw,0,2009,