Code,Name,Latitude,Longitude,No_Observed,Number_By_Party_Hours,year,Editor_Comments
CASM,Sacramento,38.6,-121.55,33009,305.6389,2004,
TXLA,Laguna Atascosa N.W.R.,26.2391,-97.3814,26323,328.0125,2004,
WAPB,Padilla Bay,48.4834,-122.5667,21748,111.8149,2004,
CALS,Los Baños,37.0612,-120.8849,19172,252.2632,2004,
NCMA,Mattamuskeet N.W.R.,35.45,-76.1333,16515,235.9286,2004,
WABG,Bellingham,48.8112,-122.5629,16255,85.1047,2004,
CARC,Rio Cosumnes,38.3505,-121.4175,14030,86.8731,2004,
BCLA,Ladner,49.0538,-123.0573,11443,65.2023,2004,
WATR,Two Rivers,46.0833,-118.6167,10821,200.3889,2004,
LACA,Catahoula N.W.R.,31.508,-92.0589,10020,159.0476,2004,
ORFG,Forest Grove,45.4851,-123.1269,9818,158.3548,2004,
CAMA,Marysville,39.2,-121.5,8893,121.4061,2004,
CAPV,Peace Valley,39.1982,-121.8219,7796,96.8447,2004,
UTBR,Bear River Migratory Bird Refuge,41.4804,-112.2675,7755,585.283,2004,
ORSI,Sauvie Island,45.7562,-122.8008,6484,61.7524,2004,
BCWR,White Rock,49.062,-122.7289,6315,25.6707,2004,
OREU,Eugene,44.0768,-123.179,6308,34.6118,2004,
TXRO,Rockport,28.0669,-97.1167,6111,88.5652,2004,
MOSC,Loess Bluffs (formerly Squaw Creek) N.W.R.,40.0833,-95.2667,6092,123.0707,2004,
SCAB,Ace Basin,32.6126,-80.4813,5505,734,2004,
NCBP,Bodie-Pea Island,35.7824,-75.5458,4900,84.4828,2004,
NMBD,Bosque del Apache N.W.R.,33.8051,-106.8907,4740,98.75,2004,
CABE,Benicia,38.1143,-122.1094,4654,27.2962,2004,
TXAP,Attwater Prairie Chicken N.W.R.,29.6344,-96.3667,4545,29.9013,2004,
NCAR,Alligator River N.W.R.,35.77,-76.08,4500,78.9474,2004,
CALC,Lincoln,38.8704,-121.3919,4423,39.4911,2004,
FLMI,Merritt Island N.W.R.,28.6171,-80.6815,3500,23.8095,2004,
TXBP,Bolivar Peninsula,29.5504,-94.4668,3089,38.6125,2004,
TXMU,Muleshoe N.W.R.,33.9563,-102.7783,3078,146.5714,2004,
ORAI,Airlie,44.7131,-123.1744,3071,18.2255,2004,
CACB,Centerville Beach to King Salmon,40.642,-124.2428,2774,11.7046,2004,
TXMM,Matagorda County-Mad Island Marsh,28.6833,-95.9833,2720,7.1579,2004,
WASD,Sequim-Dungeness,48.1,-123.0667,2455,9.3257,2004,
UTFS,Fish Springs N.W.R.,39.8107,-113.399,2276,33.9701,2004,
TXCY,Cypress Creek,29.9561,-95.89,2263,19.097,2004,
TXBL,Buffalo Lake N.W.R.,34.9187,-102.0428,2000,153.8462,2004,
UTPR,Provo,40.2526,-111.6688,1909,13.5631,2004,
CASS,Salton Sea (south),33.1579,-115.6132,1892,21.7471,2004,
TXPA,Port Aransas,27.8502,-97.1,1880,20,2004,
TXCF,Corpus Christi (Flour Bluff),27.6584,-97.2938,1873,16.2516,2004,
SCMC,McClellanville,33.1003,-79.4037,1660,28.8696,2004,
ORCO,Corvallis,44.5071,-123.2695,1541,10.72,2004,
TXAR,Aransas N.W.R.,28.2333,-96.8833,1491,19.9465,2004,
CATO,Thousand Oaks,34.1489,-118.9699,1488,12.8,2004,
CASA,Santa Ana River Valley,33.9068,-117.4889,1341,42.5714,2004,
CAHF,Hayward-Fremont,37.6068,-122.0667,1328,4.3541,2004,
WASB,Skagit Bay,48.2973,-122.3879,1317,23.4133,2004,
TXFR,Freeport,29.0172,-95.3551,1311,4.4478,2004,
NMRO,Roswell,33.397,-104.3983,1281,28.1538,2004,
MOBO,Big Oak Tree S.P.,36.6667,-89.2667,1275,42.5,2004,
CAMR,Morro Bay,35.3,-120.7767,1258,4.6593,2004,
ARPB,Pine Bluff,34.2295,-92.0033,1244,24.2732,2004,
ARWA,Wapanocca N.W.R.,35.35,-90.2333,1167,19.9487,2004,
LACW,Crowley,30.1107,-92.3619,1091,28.1548,2004,
ARLO,Lonoke,34.749,-91.8957,1016,15.1642,2004,
ALWH,Wheeler N.W.R.,34.6001,-86.8837,957,10.0209,2004,
CAOC,Orange County (coastal),33.6725,-117.9453,916,2.6303,2004,
BCNN,Nanaimo,49.1668,-123.9333,873,5.6323,2004,
CAMC,Marin County (southern),37.9214,-122.5643,871,3.0996,2004,
CAPA,Palo Alto,37.4064,-122.1559,864,3.661,2004,
ORDA,Dallas,44.8965,-123.3384,855,13.3594,2004,
CAPR,Point Reyes Peninsula,38.1216,-122.8901,825,1.7028,2004,
OKTI,Tishomingo N.W.R.,34.1833,-96.65,800,17.2043,2004,
COBL,Barr Lake,39.9721,-104.6955,780,15.2941,2004,
CAST,Stockton,38.116,-121.3954,750,5.2174,2004,
CACW,Caswell-Westley,37.6061,-121.174,750,11.1111,2004,
WAEV,Everett-Marysville,48.0833,-122.2167,727,5.8277,2004,
WATO,Toppenish N.W.R.,46.3609,-120.4179,703,11.6198,2004,
TXMN,McNary,31.2682,-105.7871,700,22.5806,2004,
ORSU,Summer Lake,42.9731,-120.7778,699,6.7212,2004,
CASL,San Jacinto Lake,33.8745,-117.1239,681,11.5424,2004,
WAWK,Wahkiakum,46.1917,-123.4667,646,8.9103,2004,
BCPL,Port Clements,53.6346,-132.2129,643,51.44,2004,
ORCE,Columbia Estuary,46.2192,-123.9461,626,8.0256,2004,
VACI,Chincoteague N.W.R.,37.9672,-75.3669,568,6.1739,2004,
NJOC,Oceanville,39.4422,-74.4605,565,6.7062,2004,
BCVA,Vancouver,49.2603,-123.105,565,2.0734,2004,
BCVI,Victoria,48.4667,-123.4,559,1.1015,2004,
CASD,San Diego,32.6473,-117.117,558,2.6924,2004,
LANO,New Orleans,30.0236,-89.9167,543,6.2957,2004,
CAPS,Pasadena-San Gabriel Valley,34.1199,-118.0913,540,4.2604,2004,
WAKA,Kent-Auburn,47.3598,-122.1787,524,2.8871,2004,
TXKI,Kingsville,27.4658,-97.8551,522,10.1854,2004,
WAED,Edmonds,47.8524,-122.2489,520,7.5362,2004,
ILPM,Pere Marquette Park,38.9968,-90.6051,508,8.2267,2004,
TXAM,Amarillo,34.9851,-101.7021,500,20.8333,2004,
MSDG,Dahomey-Great River Road,33.7769,-90.9545,490,7.3684,2004,
TXCC,Corpus Christi,27.8334,-97.5833,486,4.2078,2004,
WAOL,Olympia,47.0722,-122.8533,484,2.0817,2004,
TXCT,Coastal Tip,26.0278,-97.2334,480,16,2004,
TXQU,Quitaque,34.4346,-101.0739,453,56.625,2004,
LACR,Creole,29.8159,-93.1113,430,11.4667,2004,
WALP,Leadbetter Point,46.5605,-123.9894,425,7.3276,2004,
MXES,"Ensenada, Baja California, Mexico",31.8002,-116.6335,423,3.9718,2004,
LACL,Cheneyville-Lecompte,31.1,-92.3667,412,8.9081,2004,
VAFB,Fort Belvoir,38.709,-77.1939,411,1.0967,2004,
TXSB,San Bernard N.W.R.,28.8667,-95.5667,392,1.9454,2004,
WAOH,Oak Harbor,48.2646,-122.6805,389,2.4543,2004,
AZMY,Martinez Lake-Yuma,32.8884,-114.4623,384,3.8788,2004,
BCCO,Comox,49.6726,-124.9287,362,0,2004,
ORTB,Tillamook Bay,45.5167,-123.8833,355,3.0472,2004,
NLSJ,St. Johns,47.5833,-52.7239,346,4.5526,2004,
WASA,Satsop,46.9834,-123.7167,342,3.9198,2004,
DECH,Cape Henlopen-Prime Hook,38.8072,-75.1878,342,3.4721,2004,
AZHV,Havasu N.W.R.,34.4525,-114.3107,342,6.7723,2004,
WAML,Moses Lake,47.1381,-119.3214,334,6.9583,2004,
NJNG,Northwestern Gloucester County,39.7727,-75.2442,324,3.0711,2004,
BCPA,Port Alberni,49.2573,-124.814,317,5.1336,2004,
CAMD,Moss Landing,36.897,-121.7407,305,1.2762,2004,
NJBP,Belleplain,39.25,-74.9333,296,4.5891,2004,
AZPR,Prescott,34.5419,-112.4701,274,1.5568,2004,
MDJB,Jug Bay,38.7532,-76.6415,268,1.7837,2004,
WAPT,Port Townsend,48.05,-122.7333,239,2.6482,2004,
KSQU,Quivira N.W.R.,38.15,-98.4833,237,6.4054,2004,
MSWC,Washington County (south),33.097,-90.9857,234,4.5437,2004,
TNCC,Cross Creeks N.W.R.,36.476,-87.7528,230,5.679,2004,
NYSN,L.I.: Southern Nassau County,40.6298,-73.5907,225,1.125,2004,
CARS,Rancho Santa Fe,33.0003,-117.1628,225,2.0362,2004,
WASJ,San Juan Islands Archipelago,48.5462,-123.013,224,2.1033,2004,
CAAR,Arcata,40.8653,-124.1565,222,1.1952,2004,
DERE,Rehoboth,38.6035,-75.1073,218,3.2537,2004,
MOMI,Mingo N.W.R.,36.9833,-90.2,206,3.9807,2004,
TXVI,Victoria,28.8723,-97.0784,202,2.5815,2004,
ORUC,Union County,45.25,-117.8833,200,3.6036,2004,
CAES,Escondido,33.1025,-116.9403,199,1.8091,2004,
CASJ,San Jose,37.4033,-121.8821,198,0.9167,2004,
NMLA,Lakes Avalon-Brantley,32.5661,-104.294,194,7.1852,2004,
VACC,Cape Charles,37.1899,-75.941,192,1.0105,2004,
BCDU,Duncan,48.7882,-123.6714,192,1.3888,2004,
UTSL,Salt Lake City,40.7695,-111.8884,180,1.8045,2004,
VABB,Back Bay N.W.R.,36.65,-76,168,2.0488,2004,
VAWA,Walkerton,37.6809,-77.0313,158,1.8006,2004,
TXGF,Guadalupe River Delta-McFaddin Family Ranches,28.533,-96.8635,154,0.967,2004,
TXPM,Palmetto S.P.,29.5833,-97.5833,152,2.2029,2004,
IDAF,American Falls Reservoir,42.9833,-112.7,148,4.625,2004,
ORPD,Portland,45.5167,-122.7,146,0.6154,2004,
ORPO,Port Orford,42.8196,-124.4828,143,1.8101,2004,
OKFG,Fort Gibson Reservoir,35.85,-95.3167,141,3.439,2004,
NJLH,Lower Hudson,40.7751,-74.0009,132,1.0233,2004,
NMSE,Sevilleta N.W.R.,34.3167,-106.95,130,4.16,2004,
MSSL,Sardis Lake,34.47,-89.7222,125,1.9455,2004,
TXSR,Sea Rim S.P.,29.7334,-93.9563,125,1.4045,2004,
CAFR,Fall River Mills,41.0616,-121.4899,115,2.1005,2004,
RINC,Newport County-Westport,41.5369,-71.1566,115,1.1765,2004,
MOHF,(Horton) Four Rivers,38.02,-94.357,110,2.3404,2004,
OKSP,Salt Plains N.W.R.,36.785,-98.1789,110,2.0657,2004,
MSAL,Arkabutla Lake,34.7624,-90.1306,110,3.4375,2004,
MIAB,Anchor Bay,42.6273,-82.6647,105,0.875,2004,
TXAB,Abilene,32.3501,-99.7502,105,4.7727,2004,
MSSI,Sidon,33.3624,-90.2479,103,3.7117,2004,
NJBA,Barnegat,39.6667,-74.1667,103,1.0024,2004,
MDLK,Lower Kent County,39.1427,-76.1921,101,1.2242,2004,
UTOR,Ouray N.W.R.,40.1123,-109.3533,100,5.2632,2004,
ORYB,Yaquina Bay,44.5866,-124.0642,96,1.5484,2004,
ORBR,Brownsville,44.3536,-122.9671,94,1.88,2004,
NCPE,Pettigrew S.P.,35.7667,-76.45,94,1.3525,2004,
DEBH,Bombay Hook N.W.R.,39.2152,-75.4822,86,0.8289,2004,
ILRL,Rend Lake,38.1324,-88.9677,86,1.2286,2004,
COJM,John Martin Reservoir,38.058,-103.033,84,1.4,2004,
CALB,Long Beach-el Dorado,33.8533,-118.0908,83,0.5321,2004,
CACC,Contra Costa County,37.9538,-121.9923,82,0.9011,2004,
NJMA,Marmora,39.2647,-74.6472,81,1.3333,2004,
TXRL,Robert Lee,31.9161,-100.4999,80,3.0769,2004,
ORSA,Salem,44.9437,-123.0388,79,0.6196,2004,
BCNB,Nanoose Bay,49.285,-124.1357,76,1.3103,2004,
TNHI,Hiwassee,35.3655,-84.92,74,1.0423,2004,
CATL,Tule Lake,41.9465,-121.539,73,1.973,2004,
BCSA,Salmon Arm,50.7,-119.2333,73,2.2813,2004,
NMSR,Santa Rosa,34.9521,-104.6703,70,1.8421,2004,
AZGV,Green Valley-Madera Canyon,31.7923,-110.9151,69,0.4089,2004,
BCAM,Abbotsford-Mission,49.1136,-122.3031,69,0.9583,2004,
NESC,Scottsbluff,41.8674,-103.6408,68,1.6485,2004,
BCPQ,Parksville-Qualicum Beach,49.3458,-124.36,67,0.8535,2004,
CAOA,Oakland,37.8146,-122.233,66,0.1677,2004,
WAGH,Grays Harbor,46.9667,-124.05,65,0.4127,2004,
CAMN,Manchester,39.0347,-123.6897,65,0.7222,2004,
IDSP,Sandpoint,48.2749,-116.5624,63,1.8261,2004,
AZAV,Avra Valley,32.2501,-111.25,63,1.2293,2004,
ILMI,Meredosia Island,39.8542,-90.5937,62,1.0783,2004,
HIWO,O'ahu: Waipi'o,21.4618,-158.0128,62,1.6209,2004,
NCOI,Ocracoke Island,35.15,-75.8833,60,1.5789,2004,
MSNA,Natchez,31.6167,-91.3792,60,1.6216,2004,
LADA,D'Arbonne,32.6583,-92.241,58,0.5771,2004,
CACL,Clear Lake,38.9392,-122.7199,57,0.5455,2004,
CAEL,Eagle Lake,40.6299,-120.7518,55,0.6471,2004,
BCPM,Pitt Meadows,49.2839,-122.6729,53,0.2314,2004,
NJSA,Salem,39.614,-75.4142,52,0.8287,2004,
TXCR,Crawford,31.556,-97.3556,52,0.8889,2004,
AZGC,Glen Canyon,36.9167,-111.5167,51,2.125,2004,
BCSO,Sooke,48.3442,-123.6719,51,0.3,2004,
GASV,"Savannah, GA-SC",32.0842,-81.0667,49,0.2849,2004,
CODV,Denver (urban),39.7347,-104.8753,47,0.3258,2004,
CAFO,Folsom,38.6618,-121.0974,47,0.2892,2004,
TXBS,Big Spring,32.2391,-101.4162,47,2,2004,
TXHA,Hagerman N.W.R.,33.7807,-96.7444,46,0.7077,2004,
WATA,Tacoma,47.2335,-122.5167,45,0.3051,2004,
MSSH,Southern Hancock County,30.2906,-89.5034,45,0.5325,2004,
WACC,Cowlitz-Columbia,46.1092,-122.9787,45,0.9375,2004,
CASR,Santa Rosa,38.4379,-122.7116,45,0.2839,2004,
ORPR,Prineville,44.3668,-120.75,45,0.7143,2004,
AZRC,Ramsey Canyon,31.4599,-110.2068,45,0.2332,2004,
MXRC,"Rio Corona, Tamaulipas, Mexico",23.9333,-98.9333,45,4.0909,2004,
TXGA,Galveston,29.3333,-94.8333,45,0.3371,2004,
DEMF,Milford,38.9595,-75.4275,43,0.4433,2004,
IDNA,Nampa,43.568,-116.6729,43,0.6515,2004,
TXLD,Laredo,27.5,-99.4167,42,0.6885,2004,
CAEC,East Contra Costa County,37.9118,-121.678,42,0.8235,2004,
CALU,La Purisima,34.6616,-120.5368,42,0.56,2004,
BCSI,Skidegate Inlet,53.2112,-131.9876,41,2.1579,2004,
LABC,Bossier-Caddo-Bienville,32.2932,-93.5026,40,0.4734,2004,
MDOC,Ocean City,38.3128,-75.2122,39,0.181,2004,
CAAA,Auburn,38.9758,-121.1438,39,0.3029,2004,
MXMC,"Mexico City, Distrito Federal, Mexico",19.2333,-99.1833,39,1.2188,2004,
NYMZ,Montezuma,43.0029,-76.731,39,0.291,2004,
NVMU,Muddy River,36.6792,-114.6242,38,1.4074,2004,
WAKC,Kitsap County,47.6323,-122.6609,38,0.6786,2004,
BCMA,Greater Masset,54.0464,-132.1903,37,0.7629,2004,
ILCY,Cypress Creek,37.319,-89.0213,37,0.3905,2004,
HIKU,Moloka'i: Kualapu'u,21.1333,-157.0167,36,3.1304,2004,
TXNB,New Braunfels,29.7,-98.1167,36,0.5475,2004,
LAFP,Fort Polk,31.334,-93.439,36,3.6,2004,
VANR,Nansemond River,36.8472,-76.4333,35,0.5072,2004,
NVCC,Carson City,39.1766,-119.7332,35,0.6667,2004,
ORFL,Florence,44.0334,-124.0667,34,0.425,2004,
AZTV,Tucson Valley,32.3016,-110.9735,34,0.2455,2004,
COSL,Sterling,40.6966,-103.2219,34,1.4316,2004,
COBO,Boulder,40.0256,-105.2725,34,0.1214,2004,
AZNO,Nogales,31.4338,-110.9358,32,0.4324,2004,
ARBL,Big Lake N.W.R.,35.8874,-90.1227,32,1.1429,2004,
SCCA,Charleston,32.9333,-79.7,32,0.4025,2004,lo
TXLH,Lake Houston,29.94,-95.18,31,0.7848,2004,
NJTM,Trenton Marshes,40.1918,-74.7276,30,0.4124,2004,
MTST,Stevensville,46.513,-114.0922,30,0.3499,2004,
TXFW,Fort Worth,32.7661,-97.4715,30,0.2087,2004,
TXKV,Kerrville,30.0646,-99.1757,30,0.7407,2004,
ALEU,Eufaula N.W.R.,31.9939,-85.0886,30,1.0714,2004,
ORRS,Roseburg-Sutherlin,43.3177,-123.3473,30,0.4332,2004,
DEMI,Middletown,39.4753,-75.6347,30,0.4225,2004,
CAOV,Oceanside-Vista-Carlsbad,33.1903,-117.2796,30,0.2151,2004,
AKJU,Juneau,58.3167,-134.55,29,0.4394,2004,
NMCL,Clayton,36.5177,-103.2546,29,1,2004,
MXCR,"Colorado River Delta, Sonora, Mexico",31.5503,-114.5203,28,1.2174,2004,
AZPT,Phoenix-Tres Rios,33.3725,-112.3582,28,0.2348,2004,
MDSD,Southern Dorchester County,38.3617,-76.0371,28,0.3567,2004,
MXSC,"San Carlos, Sonora, Mexico",28.0389,-110.9377,27,2.25,2004,
RISK,South Kingstown,41.4295,-71.5588,27,0.2379,2004,
QCMO,Montreal,45.4525,-73.6443,27,0.2432,2004,
ILJC,Jackson County,37.7167,-89.35,25,0.4854,2004,
TXQN,Quanah,34.3285,-99.6831,25,1.087,2004,
MDST,St. Michaels,38.7506,-76.2531,25,0.289,2004,
TNJA,Jackson,35.6119,-88.8205,24,1.7143,2004,
ARWR,White River N.W.R.,34.3146,-91.121,24,0.768,2004,
COBR,Bonny Reservoir,39.6307,-102.1845,23,0.2044,2004,
CAYR,Yreka,41.7495,-122.5247,23,0.46,2004,
TXBU,Bell County,30.9667,-97.45,23,0.6133,2004,
NJCC,Cumberland County,39.3325,-75.2004,23,0.1533,2004,
CODE,Denver,39.587,-105.143,23,0.1156,2004,
WYCO,Cody,44.4829,-109.0565,22,0.3088,2004,
TXBE,Beech Creek,30.7667,-94.2,22,0.3877,2004,
HILA,Laysan Island,25.7691,-171.7331,22,1.2222,2004,
CAON,Orange County (northeastern),33.7145,-117.6776,22,0.0746,2004,
ILML,"Mermet Lake, Massac County",37.2,-88.75,21,0.3088,2004,
NMFA,Farmington,36.7833,-108.102,21,0.5714,2004,
ORBA,Baker,44.8619,-117.8392,20,0.5634,2004,
CALR,Lake Almanor,40.2833,-121.25,20,0.5128,2004,
NCCH,Cape Hatteras,35.2188,-75.6067,20,0.2469,2004,
NYCS,L.I.: Central Suffolk County,40.8333,-72.7838,20,0.166,2004,
OKOC,Oklahoma City,35.5368,-97.5834,20,0.1724,2004,
MOCO,Columbia,38.8915,-92.3348,20,0.1484,2004,
BCSQ,Squamish,49.7309,-123.1452,20,0.3053,2004,
TXSG,San Angelo,31.4439,-100.4823,20,0.2462,2004,
LASA,Sabine N.W.R.,29.8545,-93.3892,19,0.2011,2004,
TXLU,Lubbock County,33.5849,-101.7925,19,0.2754,2004,
TXAU,Austin,30.1834,-97.698,19,0.0846,2004,
ILCS,Crane Lake-Sangamon,40.1233,-90.2323,19,0.5278,2004,
WAEA,East Lake Washington,47.5899,-121.9995,19,2.2353,2004,
MOCC,Clarence Cannon N.W.R.,39.1667,-90.7808,19,0.5429,2004,
PALB,Southern Bucks County,40.1765,-74.8971,18,0.0992,2004,
ORCB,Coos Bay,43.3759,-124.2973,18,0.1125,2004,
NJBO,Boonton,40.85,-74.3833,18,0.1125,2004,
NMLO,Loving,32.291,-104.0667,18,0.385,2004,
NJMO,Moorestown,39.9422,-74.9391,18,0.2424,2004,
TXWF,Wichita Falls,33.8877,-98.6298,17,0.5714,2004,
NCPD,Pee Dee N.W.R.,35.1167,-80.05,17,0.3579,2004,
OHWO,Wooster,40.7464,-82.0189,17,0.4198,2004,
WYJH,Jackson Hole,43.5742,-110.7332,17,0.1809,2004,
TXWW,Welder Wildlife Refuge,28.1136,-97.4171,17,0.4964,2004,
TXCP,Chaparral W.M.A.,28.3609,-99.3429,16,0.3386,2004,
NJSH,Sandy Hook,40.47,-74.0031,16,0.1975,2004,
NCKH,Kitty Hawk,36.031,-75.7185,16,0.2162,2004,
TXWR,White River,33.482,-101.1082,16,0.3721,2004,
VASL,Shenandoah N.P.-Luray,38.5948,-78.4572,16,0.1711,2004,
TXSA,Santa Ana N.W.R.,26.1492,-98.1917,16,0.1649,2004,
NCSB,Southport-Bald Head-Oak Islands,33.9388,-78.0265,15,0.1474,2004,
BCCR,Campbell River,49.9666,-125.2088,15,0.1974,2004,
CORF,Roaring Fork River Valley,39.4579,-107.2624,15,0.3974,2004,
NSHD,Halifax-Dartmouth,44.6096,-63.4947,15,0.0593,2004,
MXPP,"Puerto Penasco, Sonora, Mexico",31.3501,-113.5167,15,0.3125,2004,
MEFB,Freeport-Brunswick,43.8229,-70.0268,15,0.2062,2004,
CADN,Del Norte County,41.8446,-124.1712,15,0.1327,2004,
CORO,Rocky Ford,38.1326,-103.679,15,0.7143,2004,
TXOR,Old River,29.8776,-94.7263,14,0.1081,2004,
CAPP,Palos Verdes Peninsula,33.7723,-118.3279,14,0.0956,2004,
TXDR,Del Rio,29.4651,-100.9585,14,0.2745,2004,
ILAP,Arklands Pyramid,37.575,-89.3228,13,0.3095,2004,
CACS,Crystal Springs,37.5184,-122.3751,13,0.0533,2004,
TXAZ,Anzalduas-Bentsen,26.2235,-98.3944,13,0.2889,2004,
NJWC,Warren County-Northampton County,40.78,-75.1001,13,0.1209,2004,
HIMA,Midway Atoll,28.2018,-177.3806,13,0.963,2004,
FLSM,St. Marks,30.1536,-84.2227,13,0.161,2004,
ORBE,Bend,44.0642,-121.3109,12,0.1534,2004,
VALC,Little Creek,36.8508,-76.0994,12,0.15,2004,
NJGS,Great Swamp-Watchung Ridges,40.6983,-74.4017,12,0.1739,2004,
CAOR,Oroville,39.5178,-121.5499,12,0.3692,2004,
ONSL,St. Clair N.W.A.,42.3667,-82.35,12,0.1622,2004,
OHPC,Paint Creek Area,39.2622,-83.445,12,0.3692,2004,
ILCE,Carlyle Lake,38.7,-89.2667,11,0.1964,2004,
MDTR,Triadelphia Reservoir,39.1605,-76.9885,11,0.0643,2004,
TXMI,Midland,31.95,-102.0333,11,0.1397,2004,
CORA,Rawhide Energy Station,40.8628,-105.1431,11,0.2444,2004,
NYRH,Rochester,43.2232,-77.6413,11,0.0954,2004,
AZEL,Elfrida,31.6667,-109.6833,11,0.2857,2004,
OHOT,Ottawa N.W.R.,41.6114,-83.2006,11,0.2444,2004,
VATP,The Plains,38.8,-77.8667,10,0.0699,2004,
COHO,Hotchkiss,38.7694,-107.7646,10,0.2381,2004,
WAYV,Yakima Valley,46.5919,-120.4555,10,0.1504,2004,
TXCK,Choke Canyon,28.4913,-98.3082,10,0.1709,2004,
AZGR,Gila River,33.3071,-112.6833,10,0.0794,2004,
TXWA,Waco,31.5194,-97.0451,10,0.1887,2004,
TXLG,Longview,32.3765,-94.7162,10,0.107,2004,
LANA,Natchitoches,31.824,-93.0635,10,0.1961,2004,
IDLE,Lewiston-Clarkston,46.414,-116.952,10,0.1504,2004,
NJCM,Cape May,39.0123,-74.8778,9,0.0365,2004,
AZCH,Chino Valley,34.8001,-112.4,9,0.1782,2004,
DCDC,Washington,38.8674,-77.0685,9,0.0459,2004,
NYBU,Buffalo,43.0016,-78.9651,9,0.0793,2004,
NYGE,Geneva,42.8667,-76.9833,9,0.1429,2004,
MDBH,Baltimore Harbor,39.2661,-76.4911,9,0.1667,2004,
ONKG,Kingston,44.206,-76.4611,9,0.0928,2004,
CALH,Lake Henshaw,33.2112,-116.7255,9,0.1385,2004,
OHPO,Portsmouth,38.7798,-83.1086,9,0.1837,2004,
NSAN,Antigonish,45.6007,-61.9143,9,0.2647,2004,
MAMV,Martha's Vineyard,41.3571,-70.5207,9,0.0744,2004,
NSCS,Cape Sable Island,43.4834,-65.6167,9,0.0973,2004,
CAWO,Woodfords,38.7662,-119.8082,8,0.2424,2004,
COLO,Longmont,40.1741,-105.1734,8,0.0829,2004,
ORSL,Silverton,44.966,-122.7065,8,0.1778,2004,
NYSG,L.I.: Sagaponack,40.9298,-72.2287,8,0.0541,2004,
VAWI,Williamsburg,37.2792,-76.6987,8,0.0944,2004,
NJLB,Long Branch,40.2502,-74.0554,8,0.0825,2004,
MOOF,Orchard Farm,38.8793,-90.4462,8,0.1362,2004,
TXDA,Dallas County,32.8258,-96.8312,8,0.0634,2004,
NVRL,Ruby Lake,40.2,-115.5,8,0.3265,2004,
NCDU,Durham,36.0868,-78.8907,7,0.0648,2004,
NYSI,Staten Island,40.5833,-74.15,7,0.0753,2004,
AZ18,Salt-Verde Rivers,33.55,-111.7333,7,0.0358,2004,
CASB,Santa Barbara,34.4512,-119.7627,7,0.0249,2004,
PACT,Curtin,40.5667,-76.8333,7,0.0966,2004,
IDIM,Indian Mountain,47.3833,-116.0833,7,0.1186,2004,
CACH,China Lake,35.6518,-117.7056,7,0.1466,2004,
GUDE,"Dededo, Guam",13.5502,144.85,7,0.4912,2004,
OKWA,Washita N.W.R.,35.6495,-99.2797,7,0.1609,2004,
UTLO,Logan,41.7993,-111.8333,7,0.0619,2004,
UTOG,Ogden,41.2198,-112.064,7,0.1346,2004,
TXLR,Lake Ray Hubbard,32.9296,-96.5363,7,0.1029,2004,
MAPL,Plymouth,41.8733,-70.6012,7,0.1333,2004,
FLDB,Daytona Beach,29.25,-81.1167,7,0.1795,2004,NC
MACO,Concord,42.4333,-71.4333,7,0.0146,2004,
WAVA,Vashon,47.4332,-122.5067,6,0.0525,2004,
NSLU,Lunenburg,44.4067,-64.2583,6,0.0615,2004,
NYOR,L.I.: Orient,41.107,-72.3346,6,0.0369,2004,
MEBP,Bath-Phippsburg-Georgetown,43.7803,-69.7443,6,0.1,2004,
ORAD,Adel,42.1833,-119.8833,6,0.2857,2004,
AKKO,Kodiak,57.75,-152.4833,6,0.0772,2004,
AZTI,Timber Mesa,34.2089,-109.9582,6,0.3158,2004,
MIKA,Kalamazoo,42.2963,-85.6482,6,0.0866,2004,
NYQU,L.I.: Queens,40.6932,-73.7448,6,0.0698,2004,
WVCH,Charleston,38.362,-81.7143,5,0.087,2004,
ILHP,Hennepin,41.2552,-89.3389,5,0.1942,2004,
OHCO,Columbus,39.9851,-82.9315,5,0.0556,2004,
TXVC,Village Creek Drying Beds,32.7667,-97.1167,5,0.0592,2004,
CARM,Redlands (Mill Creek),34.1025,-116.9999,5,0.0855,2004,
NMCA,Caballo,32.953,-107.3122,5,0.2174,2004,
NMLV,Las Vegas,35.595,-105.2152,5,0.25,2004,
OKSC,Stephens County,34.5667,-97.7833,5,0.101,2004,
SCSN,Santee N.W.R.,33.5104,-80.408,5,0.0568,2004,
COCS,Colorado Springs,38.8022,-104.8167,5,0.0452,2004,
PAWI,Williamsport,41.2501,-76.9355,5,0.0847,2004,
VAWP,Wachapreague,37.6707,-75.6998,5,0.0515,2004,
BCOO,Oliver-Osoyoos,49.0787,-119.5164,5,0.0403,2004,
PACH,Chambersburg,39.9,-77.5834,4,0.031,2004,
OKHR,Hulah Reservoir,36.9289,-96.0873,4,0.0546,2004,
CALL,Lost Lake-Fresno,36.95,-119.7,4,0.0523,2004,
WVON,Ona,38.506,-82.1902,4,0.0751,2004,
MTMS,McNeil Slough,48.5333,-107.5333,4,0.1975,2004,
LAPP,Pine Prairie,30.7643,-92.3765,4,0.0851,2004,
CASY,Sierra Valley,39.6834,-120.3664,4,0.0982,2004,
OHWE,Wellington,41.15,-82.2,4,0.093,2004,
NYSM,L.I.: Smithtown,40.9133,-73.1386,4,0.05,2004,
NMMA,Maxwell N.W.R.,36.5954,-104.6499,4,0.1633,2004,
FLAB,Aripeka-Bayport,28.4667,-82.5833,4,0.0623,2004,
MANA,Nantucket,41.2901,-70.0901,4,0.0392,2004,
KSRH,Red Hills,37.13,-98.42,4,0.1127,2004,
MANF,New Bedford,41.6,-70.8667,4,0.1,2004,
IASH,Shenandoah,40.7211,-95.4809,4,0.0635,2004,
NVFA,Fallon,39.3965,-118.773,4,0.1667,2004,
OKSE,Sequoyah,34.4985,-94.9695,4,0.1026,2004,
NYNN,L.I.: Northern Nassau County,40.866,-73.5938,4,0.0289,2004,
ARML,Magnolia-Lake Columbia,33.2684,-93.2832,4,0.0625,2004,
WASP,Spokane,47.7151,-117.4112,4,0.0207,2004,
WASE,Seattle,47.6017,-122.3341,4,0.0186,2004,
ONFV,Fisherville,42.8815,-79.9038,4,0.0275,2004,
CACM,Claremont,34.1384,-117.7073,4,0.0325,2004,
IDHV,Hagerman Valley,42.8167,-114.9,4,0.0796,2004,
TNCH,Chattanooga,35.104,-85.2292,4,0.0476,2004,
ABCA,Calgary,51.051,-114.0848,4,0.0184,2004,
MDRR,Rock Run,39.6041,-76.167,4,0.0418,2004,
KSUW,Udall-Winfield,37.2647,-96.9756,4,0.0833,2004,
INTH,Terre Haute,39.4165,-87.407,4,0.0404,2004,
MTWY,West Yellowstone,44.7992,-111.2958,4,0.1429,2004,
OHBV,Beaver Valley,39.0592,-82.7973,4,0.093,2004,
CADM,Diamond Valley,33.627,-117.018,4,0.4444,2004,
LANS,Northshore-Slidell,30.25,-89.7933,4,0.0271,2004,
TXWS,Weslaco,26.1507,-97.9421,4,0.0437,2004,
BCRE,Revelstoke,51.006,-118.2206,4,0.1379,2004,
FLHC,Hamilton County,30.336,-82.7595,3,0.0632,2004,
CAWS,Western Sonoma County,38.3853,-123.0306,3,0.0087,2004,
TXIV,Canadian River,35.9217,-100.2729,3,0.075,2004,
GAFC,Floyd County,34.2898,-85.1805,3,0.0385,2004,
PALV,Lehigh Valley,40.5479,-75.6059,3,0.023,2004,
KSLC,Linn County,38.2833,-94.75,3,0.0779,2004,
OHEF,East Fork Lake S.P.,38.9871,-84.0253,3,0.0811,2004,
VATA,Tazewell,37.1326,-81.4934,3,0.06,2004,
WYCA,Casper,42.7834,-106.4333,3,0.0314,2004,
IASC,Sioux City,42.4914,-96.4072,3,0.0638,2004,
MDOA,Oakland,39.4936,-79.3658,3,0.0545,2004,
NJSO,Somerset County,40.5823,-74.622,3,0.0357,2004,
NDGD,Garrison Dam,47.5119,-101.3264,3,0.0992,2004,
ILNE,Newton,38.0441,-88.3181,3,0.069,2004,
METR,Thomaston-Rockland,44.0815,-69.1684,3,0.0594,2004,
CABA,Bakersfield,35.4311,-118.9173,3,0.0469,2004,
OHCA,Cadiz,40.2992,-81.0847,3,0.0909,2004,
NVPL,Pyramid Lake,39.944,-119.5102,3,0,2004,
ARTE,Texarkana,33.4725,-93.9215,3,0.1081,2004,
PEEP,East Point,46.4048,-62.1065,3,0.3,2004,
MTNI,Ninepipe N.W.R.,47.4281,-114.1182,3,0.0519,2004,
AZBW,Bill Williams Delta,34.3002,-114.0928,3,0.0723,2004,
ORKF,Klamath Falls,42.1595,-121.7351,3,0.0469,2004,
NYCT,Catskill-Coxsackie,42.2871,-73.8823,3,0.0441,2004,
NJSU,Sussex County,41.1186,-74.6385,3,0.0288,2004,
VAWY,Waynesboro,37.981,-78.955,3,0.0577,2004,
NYEO,Eastern Orange County,41.4811,-74.1473,3,0.0252,2004,
ONTO,Toronto,43.7086,-79.4104,3,0.012,2004,
NYCA,L.I.: Captree,40.7038,-73.2493,3,0.0309,2004,
ORUM,Umatilla County,45.6,-118.6667,3,0.0667,2004,
TXEP,El Paso,31.7828,-106.4798,3,0.0597,2004,
MDPL,Point Lookout,38.1061,-76.4212,3,0.0583,2004,
IAPC,Princeton-Camanche,41.7486,-90.3546,3,0.0984,2004,
CTNH,New Haven,41.3007,-72.9323,3,0.0171,2004,
FLNR,West Pasco (New Port Richey),28.2604,-82.6949,2,0.0175,2004,
FLKD,Kendall Area,25.6789,-80.3175,2,0.0333,2004,
NBGM,Grand Manan Island,44.6833,-66.8,2,0.0755,2004,
MOKC,Kansas City,38.9488,-94.4049,2,0.0383,2004,
CAPC,Putah Creek,38.481,-122.0306,2,0.0139,2004,
NSWO,Wolfville,45.0853,-64.3863,2,0.0134,2004,
GUSO,"Southern Guam, Guam",13.3589,144.7055,2,0.1481,2004,
MACC,Cape Cod,41.7207,-69.9968,2,0.0222,2004,
MSJC,Jackson County,30.4366,-88.7119,2,0.0272,2004,
ARHB,Holla Bend N.W.R.,35.166,-93.1382,2,0.0265,2004,
NCHC,Henderson County,35.343,-82.553,2,0.0261,2004,
NYLS,Letchworth-Silver Lake,42.7487,-78.0057,2,0.0255,2004,
INLM,Lake Monroe,39.0152,-86.3984,2,0.0179,2004,
CAAN,Año Nuevo,37.2147,-122.3182,2,0.0108,2004,
HIHO,O'ahu: Honolulu,21.3692,-157.7874,2,0.0338,2004,
CNSA,"Saipan, C.N.M.I.",15.1991,145.7506,2,0.1538,2004,
MEPA,Greater Portland,43.5858,-70.2242,2,0.0169,2004,
NJWV,Walnut Valley,40.976,-75.0226,2,0.0195,2004,
IDPV,Pahsimeroi Valley,44.6287,-113.9779,2,0.0208,2004,
PAMA,Mansfield-Wellsboro,41.7731,-77.201,2,0.0435,2004,
CAVE,Ventura,34.3484,-119.1921,2,0.0126,2004,
MTBL,Billings,45.8167,-108.4333,2,0.024,2004,
WALY,Lyle,45.6833,-121.2333,2,0.0289,2004,
CTOL,Old Lyme-Saybrook,41.2924,-72.427,2,0.017,2004,
KYLB,Land Between the Lakes,36.9367,-88.1683,2,0.0331,2004,
NYCH,Conesus-Hemlock-Honeoye Lakes,42.7776,-77.6161,2,0.0185,2004,
VAHO,Hopewell,37.367,-77.2842,2,0.0199,2004,
PATU,Tunkhannock,41.5364,-75.9476,2,0.0351,2004,
GAAU,Augusta,33.4393,-82.0239,2,0.0271,2004,
COFC,Fort Collins,40.6454,-105.1141,2,0.0153,2004,
CASO,San Bernardino Valley,34.0852,-117.301,2,0.019,2004,
CAMP,Monterey Peninsula,36.562,-121.8776,2,0.0133,2004,
OHBS,Black Swamp,41.11,-84.37,2,0.0792,2004,
PAER,Erie,42.0833,-80.0333,2,0.0426,2004,
NHCS,Coastal New Hampshire,42.9833,-70.8333,2,0.0145,2004,
COGR,Greeley,40.3936,-104.6801,2,0.0392,2004,
PAGL,Delaware County (Glenolden),39.8992,-75.3729,2,0.0075,2004,
INNC,New Castle,39.9167,-85.3667,2,0.0625,2004,
MSNO,Noxubee N.W.R.,33.2711,-88.7837,2,0.0237,2004,
SDYA,Yankton,42.9333,-97.3833,2,0.05,2004,
ORMA,Malheur N.W.R.,42.8998,-118.8798,2,0.2222,2004,
NCSL,Southern Lake Norman,35.4424,-80.8689,2,0.0328,2004,
MEBK,Biddeford-Kennebunkport,43.4434,-70.4788,2,0.0268,2004,
BCDB,Deep Bay,49.4657,-124.7362,2,0,2004,
MAGB,Greater Boston,42.3973,-71.0955,2,0.0069,2004,
TXTE,Texarkana,33.2784,-94.2082,2,0.0889,2004,
TNBI,Bristol,36.6058,-82.0999,2,0.0351,2004,
PAHR,Harrisburg,40.234,-76.9349,2,0.0146,2004,
CACO,Chico,39.722,-121.8238,2,0.0222,2004,
MTGF,Great Falls,47.4694,-111.3364,2,0.0503,2004,
CABV,"Buena Vista, Kern County",35.2272,-119.2617,2,0.0571,2004,
IDRU,Rupert,42.6167,-113.65,2,0.1538,2004,
NVHE,Henderson,36.0833,-114.95,2,0.0556,2004,
NDBM,Bismarck-Mandan,46.8208,-100.7826,2,0.0367,2004,
SKYO,Yorkton,51.2,-102.4833,2,0.1081,2004,"GD,MO"
MICO,Coloma,42.2148,-86.3013,2,0.0349,2004,
MAMA,Marshfield,42.0973,-70.6537,2,0.0257,2004,
BCKA,Kamloops,50.6694,-120.398,2,0.0278,2004,
TNRL,Reelfoot Lake,36.4167,-89.3833,2,0.0381,2004,
FLAL,Alafia Banks,27.792,-82.3349,2,0.0388,2004,
NYBR,L.I.: Brooklyn,40.616,-73.9448,2,0.2222,2004,
INMT,Muscatatuck N.W.R.,38.9594,-85.7983,2,0.0571,2004,
PANV,Newville,40.1492,-77.3681,2,0.0339,2004,
TNNO,Norris,36.2242,-84.0927,2,0.0513,2004,
MOML,Montrose Lake Wildlife Area,38.2521,-93.8217,2,0.0506,2004,
KYLO,Louisville,38.2929,-85.6284,2,0.0259,2004,
CAMS,Mount Shasta,41.5342,-122.4141,2,0.0321,2004,
VAMB,Manassas-Bull Run,38.8387,-77.4315,2,0.0206,2004,
AKIZ,Izembek N.W.R.,55.2002,-162.7177,2,0.0808,2004,
VTCS,Champlain Islands-St. Albans,44.817,-73.2492,2,0.0237,2004,
ONHA,Hamilton,43.2679,-79.8852,2,0.0098,2004,
TXBA,Balmorhea,30.9858,-103.7459,2,0.0556,2004,
MA4A,Stellwagen Bank,42.15,-70.2333,1,0.0513,2004,
CALN,Lancaster,34.7043,-118.086,1,0.0115,2004,
NSGB,Glace Bay,46.1417,-59.95,1,0.0145,2004,
MANO,Northampton,42.3439,-72.6028,1,0.0031,2004,
AZCF,Carefree,33.8594,-111.902,1,0.0086,2004,
CTGS,Greenwich-Stamford,41.0826,-73.6138,1,0.0039,2004,
TXHO,Houston,29.7497,-94.9492,1,0.0151,2004,
MNBT,Battle Lake,46.3833,-95.6333,1,0.0247,2004,
ILUC,Union County,37.4676,-89.4048,1,0.01,2004,
AKSI,Sitka,57.0527,-135.3651,1,0.0154,2004,
TXBF,Buffalo Bayou,29.7715,-95.5699,1,0.0061,2004,
CASC,Santa Cruz County,37.0162,-122.0499,1,0.0039,2004,
ABHR,High River,50.5816,-113.8693,1,0.0163,2004,
PAWS,Washington,40.1288,-80.2099,1,0.0278,2004,
BCME,Merritt,50.1634,-120.6742,1,0.0345,2004,
AZFL,Flagstaff-Mt. Elden,35.241,-111.5976,1,0.0303,2004,
NDFM,Fargo-Moorhead,46.934,-96.8329,1,0.0208,2004,
TNHP,Hickory-Priest,36.1926,-86.6634,1,0.0196,2004,
MSJA,Jackson,32.4476,-90.004,1,0.0142,2004,
PAEL,Elverson,40.1334,-75.7667,1,0.0087,2004,
KSWL,Waconda Lake,39.4654,-98.3591,1,0.0455,2004,
PAIN,Indiana,40.615,-79.1408,1,0.0079,2004,
CASP,Springville,36.1338,-118.813,1,0.0112,2004,
MDAG,Annapolis-Gibson Island,39.0033,-76.5065,1,0.0038,2004,
MDBO,Bowie,38.9927,-76.7852,1,0.0043,2004,
TXLK,Lake Tawakoni,32.7667,-95.9167,1,0.0179,2004,
TXLO,Lake O' the Pines,32.8001,-94.5947,1,0.0136,2004,
VAGS,Glade Spring,36.7883,-81.7787,1,0.0166,2004,
VARC,Rockingham County,38.4318,-79.0394,1,0.0193,2004,
PAUB,Upper Bucks County,40.4036,-75.365,1,0.0059,2004,
IAJA,Jamaica,41.789,-94.3375,1,0.0339,2004,
OHCF,Cuyahoga Falls,41.1338,-81.4832,1,0.0043,2004,
MAUX,Uxbridge,42.0671,-71.666,1,0.0087,2004,
NJLA,Lakehurst,40.0159,-74.1451,1,0.0159,2004,
KSWS,Wilson Reservoir,38.9441,-98.5711,1,0.0333,2004,
MIWM,Western Macomb County,42.7008,-82.9533,1,0.0108,2004,
ILCA,Chautauqua N.W.R.,40.4167,-89.95,1,0.0189,2004,
IACF,Cedar Falls-Waterloo,42.5167,-92.45,1,0,2004,
ABMH,Medicine Hat,50.0177,-110.6845,1,0.015,2004,
WIBR,Bridgeport,42.9889,-91.0305,1,0.0213,2004,
CTBA,Barkhamsted,41.9123,-72.9884,1,0.0103,2004,
IACL,Clinton,41.9801,-90.174,1,0.0274,2004,
PALA,Lancaster,39.9921,-76.3614,1,0.0135,2004,
NVTM,Truckee Meadows,39.4679,-119.8205,1,0.0106,2004,
NCWS,Winston-Salem,36.084,-80.3067,1,0.0117,2004,
QCPE,Perce,48.5256,-64.3345,1,0.022,2004,
NJNH,Northwestern Hunterdon County,40.6365,-74.9098,1,0.0125,2004,
CADV,Death Valley,36.4619,-116.8668,1,0.0541,2004,
KSOP,Oskaloosa-Perry Lake,39.2014,-95.4032,1,0.0197,2004,
ABED,Edmonton,53.4905,-113.5555,1,0.0038,2004,
IDSV,Sun Valley,43.3081,-114.067,1,0.0385,2004,
MTPP,Pompeys Pillar,45.9835,-108.0303,1,0.0328,2004,
ONOW,Oshawa,43.9085,-78.8141,1,0.0071,2004,
CAUK,Ukiah,39.1386,-123.166,1,0.0169,2004,
ONPH,Peel-Halton Counties,43.4878,-79.6875,1,0.0073,2004,
MOMA,Maryville,40.3463,-94.9198,1,0.0253,2004,
PACB,Central Bucks County,40.3102,-75.1017,1,0.0076,2004,
PARD,Reading,40.3667,-75.8667,1,0.0131,2004,
ILDE,Decatur,39.8426,-88.9535,1,0.0235,2004,
FLSB,South Brevard County,27.8486,-80.55,1,0.007,2004,
ILRO,Rockford,42.3667,-89.1667,1,0.0099,2004,
ORME,Medford,42.4026,-122.8559,1,0.0113,2004,
VTFE,Ferrisburg,44.1833,-73.3023,1,0.0082,2004,
NHKE,Keene,42.9303,-72.3123,1,0.0119,2004,
AKHO,Homer,59.6336,-151.4896,1,0.0189,2004,
CAKR,Kern River Valley,35.6625,-118.4588,1,0.0115,2004,
MASP,Springfield,42.1294,-72.5089,1,0.0072,2004,
KSWR,Webster Reservoir,39.4231,-99.4064,1,0.1111,2004,
NENO,Norfolk,42.0326,-97.4265,1,0.0169,2004,
IDIF,Idaho Falls,43.5172,-112.0596,1,0.0278,2004,
NMCM,Cimarron,36.2927,-104.5324,1,0.0278,2004,
KYWC,Wayne County,36.8972,-84.8213,1,0.036,2004,
NDJA,Jamestown,46.899,-98.7502,1,0.0179,2004,
MNWI,Winona,44.0368,-91.6506,1,0.0122,2004,
GABL,Bainbridge-Lake Seminole,30.885,-84.6315,1,0.0182,2004,
COGJ,Grand Junction,39.1208,-108.6081,1,0.0063,2004,
MIHA,Hartland,42.6305,-83.8364,1,0.0192,2004,
AZCV,Camp Verde,34.5873,-111.7545,1,0.0204,2004,
CASF,San Francisco,37.7143,-122.4689,1,0.006,2004,
MIAA,Ann Arbor,42.3172,-83.7781,1,0.0096,2004,
OHQH,Quail Hollow-Hartville,40.978,-81.2829,1,0.0178,2004,
ILIL,Illini S.P.,41.317,-88.6957,1,0.0342,2004,
LAST,St. Tammany Parish,30.4211,-90.0886,1,0.0082,2004,
FLPE,Pensacola,30.4474,-87.1548,1,0.0103,2004,
CTLH,Litchfield Hills,41.7703,-73.2724,1,0.0081,2004,
SDSL,Sand Lake N.W.R.,45.7834,-98.25,1,0.05,2004,
TXWC,Wise County,33.25,-97.6667,1,0.025,2004,
PABH,Bethlehem-Easton,40.6184,-75.3169,1,0.008,2004,
MEDI,Deer Isle,44.2292,-68.6767,1,0.0197,2004,
ONBA,Barrie,44.362,-79.7455,1,0.0179,2004,
NBSV,Sackville,45.9042,-64.3603,1,0.0132,2004,
MEMD,Mount Desert Island,44.336,-68.3116,1,0.032,2004,
ILBH,"Bird Haven Sanctuary, Olney",38.7529,-88.076,1,0.0202,2004,
NSSY,The Sydneys,46.1791,-60.2923,1,0.0122,2004,
ONBL,Blenheim,42.3403,-81.9372,1,0.0095,2004,
ONWS,Woodstock,43.1725,-80.7124,1,0.0182,2004,
ILCT,Clinton Lake,40.1668,-88.7999,1,0.022,2004,
GAHN,Harris Neck N.W.R.,31.6837,-81.294,1,0.0132,2004,
PEHI,Hillsborough,46.1384,-63.0363,1,0.0261,2004,
FLAP,Avon Park A.F. Range,27.6501,-81.3167,1,0.0104,2004,NC
IARL,Rathbun Lake,40.8122,-92.9447,1,0.02,2004,
MTFP,Fort Peck,48.0094,-106.4486,1,0.0357,2004,
OHHR,Hoover Reservoir,40.1905,-82.9412,1,0.0137,2004,
CAHL,Honey Lake,40.3434,-120.4229,1,0.027,2004,
SDMA,Madison,43.956,-97.0999,1,0.0235,2004,
NCGR,Greensboro,36.1163,-79.837,1,0.0101,2004,
MABB,Buzzards Bay,41.6517,-70.6206,1,0.0137,2004,
ILWM,Western Mercer County,41.1702,-90.9198,1,0.0292,2004,
NELM,Lake McConaughy,41.2065,-101.724,1,0.0154,2004,
ONPT,Peterborough,44.3208,-78.3332,1,0.0118,2004,nd
NYMK,L.I.: Montauk,41.05,-72,1,0.0057,2004,
MTCC,Clark Canyon Dam,45.0016,-112.8579,1,0.0952,2004,
NSLO,Louisbourg,45.9167,-59.9333,1,0.0123,2004,
COPR,Pueblo Reservoir,38.2354,-104.7857,1,0.0108,2004,
ILCI,Chillicothe,40.8966,-89.4966,1,0.0148,2004,
MAMC,Mid-Cape Cod,41.7004,-70.3002,1,0.0132,2004,
QCAH,Laval-Ahuntsic,45.634,-73.8195,1,0.0161,2004,
ORHR,Hood River,45.6167,-121.5667,1,0.0116,2004,
MOJC,Jefferson City,38.5815,-92.1834,1,0.0315,2004,
ILFB,Fermilab-Batavia,41.8605,-88.2628,1,0.0052,2004,
VABL,Blacksburg,37.2153,-80.469,1,0.0074,2004,
FLNA,Naples,26.1278,-81.7645,cw,0,2004,
NECL,Calamus-Loup,41.35,-99.2667,cw,0,2004,
NEBO,Branched Oak-Seward,40.9378,-96.9759,cw,0,2004,
MANE,Newburyport,42.7398,-70.8987,cw,0,2004,
IAMC,Mason City,43.1692,-93.103,cw,0,2004,
WATC,Tri-Cities,46.2357,-119.1805,cw,0,2004,
NSPI,Pictou Harbour,45.6834,-62.6167,cw,0,2004,
BCHS,Lower Howe Sound,49.4256,-123.3509,cw,0,2004,
MSEL,Eagle Lake,32.5458,-90.58,cw,0,2004,
WABR,Bridgeport,48.0184,-119.6898,cw,0,2004,
SDRC,Rapid City,44.0769,-103.2472,cw,0,2004,
ILSP,Springfield,39.8,-89.65,cw,0,2004,
ONLP,Long Point,42.6211,-80.3908,cw,0,2004,
WIBL,Beloit,42.6137,-89.09,cw,0,2004,
INWH,Whitewater S.P.,39.5909,-84.9936,cw,0,2004,
NYJA,Jamestown,42.1095,-79.2284,cw,0,2004,
PARC,Raccoon Creek S.P.,40.5,-80.4167,cw,0,2004,
MTCH,Chester,48.3667,-110.9667,cw,0,2004,
FLPR,Peace River,26.9243,-82.0474,cw,0,2004,
ILKV,Kankakee Valley,41.1209,-87.8674,cw,0,2004,
TXLV,Lewisville,33.0301,-96.9929,cw,0,2004,
MTWS,Warm Springs,46.2008,-112.859,cw,0,2004,
NMZU,Zuni,35.0333,-108.8167,cw,0,2004,
AKAN,Anchorage,61.1447,-149.864,cw,0,2004,