Code,Name,Latitude,Longitude,No_Observed,Number_By_Party_Hours,year,Editor_Comments
CACW,Caswell-Westley,37.6061,-121.174,35579,603.0339,2005,
CASS,Salton Sea (south),33.1579,-115.6132,15193,192.3165,2005,
CAPV,Peace Valley,39.1982,-121.8219,15079,327.8043,2005,
CALS,Los Ba–os,37.0612,-120.8849,14147,297.8316,2005,
NVFA,Fallon,39.3965,-118.773,10500,265.8228,2005,
CABE,Benicia,38.1143,-122.1094,7962,34.8446,2005,
CAMF,Milburn-Fresno,36.7788,-119.935,6888,299.4783,2005,
CACC,Contra Costa County,37.9538,-121.9923,5781,60.8526,2005,
LACW,Crowley,30.1107,-92.3619,5754,81.617,2005,
CAPA,Palo Alto,37.4064,-122.1559,5740,24.3272,2005,
CABA,Bakersfield,35.4311,-118.9173,5562,57.3402,2005,
CAST,Stockton,38.116,-121.3954,5475,58.5561,2005,
ARPB,Pine Bluff,34.2295,-92.0033,4815,80.9244,2005,
CASJ,San Jose,37.4033,-121.8821,4519,22.8232,2005,
MSSI,Sidon,33.3624,-90.2479,4440,277.5,2005,
CALN,Lancaster,34.7043,-118.086,3482,46.5819,2005,
CAHF,Hayward-Fremont,37.6068,-122.0667,3470,15.0542,2005,
CASL,San Jacinto Lake,33.8745,-117.1239,3043,40.0395,2005,
ARLO,Lonoke,34.749,-91.8957,2721,41.542,2005,
UTSL,Salt Lake City,40.7695,-111.8884,2437,25.6526,2005,
GASV,"Savannah, GA-SC",32.0842,-81.0667,2432,15.6399,2005,
CASD,San Diego,32.6473,-117.117,2097,11.8676,2005,
CACH,China Lake,35.6518,-117.7056,2062,27.8649,2005,
AZPR,Prescott,34.5419,-112.4701,1674,6.75,2005,
CODV,Denver (urban),39.7347,-104.8753,1652,14.9165,2005,
MSGR,Grenada,33.8051,-89.7016,1602,49.2923,2005,
NVHE,Henderson,36.0833,-114.95,1565,156.5,2005,
AZTV,Tucson Valley,32.3016,-110.9735,1425,5.9067,2005,
MXMC,"Mexico City, Distrito Federal, Mexico",19.2333,-99.1833,1247,41.5667,2005,
LACL,Cheneyville-Lecompte,31.1,-92.3667,1239,27.5333,2005,
CATO,Thousand Oaks,34.1489,-118.9699,1225,12.4365,2005,
TXST,San Antonio,29.3148,-98.608,1210,7.2024,2005,
TXAU,Austin,30.1834,-97.698,1186,6.5981,2005,
CATL,Tule Lake,41.9465,-121.539,1173,39.1,2005,
MSHA,Hattiesburg,31.3073,-89.3166,1100,24.7191,2005,
CAOC,Orange County (coastal),33.6725,-117.9453,1083,3.2893,2005,
TXLD,Laredo,27.5,-99.4167,1041,26.3544,2005,
ARAR,Arkadelphia,34.1333,-93.05,1010,12.625,2005,
NCWC,Wayne County,35.3239,-77.9845,1000,38.4615,2005,
NMBD,Bosque del Apache N.W.R.,33.8051,-106.8907,954,19.875,2005,
CARC,Rio Cosumnes,38.3505,-121.4175,929,7.5528,2005,
TXGF,Guadalupe River Delta-McFaddin Family Ranches,28.533,-96.8635,919,5.0495,2005,
TXMM,Matagorda County-Mad Island Marsh,28.6833,-95.9833,894,2.5272,2005,
NCMA,Mattamuskeet N.W.R.,35.45,-76.1333,806,9.5952,2005,
ORAI,Airlie,44.7131,-123.1744,728,7,2005,
FLMI,Merritt Island N.W.R.,28.6171,-80.6815,710,5.2206,2005,
TXWS,Weslaco,26.1507,-97.9421,707,6.5312,2005,
MOCO,Columbia,38.8915,-92.3348,701,4.2744,2005,
TXAP,Attwater Prairie Chicken N.W.R.,29.6344,-96.3667,699,6,2005,
CARS,Rancho Santa Fe,33.0003,-117.1628,695,4.6411,2005,
ORSA,Salem,44.9437,-123.0388,691,6.91,2005,
ORSI,Sauvie Island,45.7562,-122.8008,685,5.7322,2005,
TXMN,McNary,31.2682,-105.7871,664,20.75,2005,
MXPP,"Puerto Penasco, Sonora, Mexico",31.3501,-113.5167,651,20.832,2005,
CAAR,Arcata,40.8653,-124.1565,650,2.8353,2005,
TXVC,Village Creek Drying Beds,32.7667,-97.1167,631,7.7662,2005,
CALC,Lincoln,38.8704,-121.3919,630,5.1639,2005,
COBL,Barr Lake,39.9721,-104.6955,615,10,2005,
ORCO,Corvallis,44.5071,-123.2695,608,4.3044,2005,
CACL,Clear Lake,38.9392,-122.7199,605,7.0968,2005,
TXSB,San Bernard N.W.R.,28.8667,-95.5667,601,4.1306,2005,
ALWH,Wheeler N.W.R.,34.6001,-86.8837,599,6.8068,2005,
ORDA,Dallas,44.8965,-123.3384,592,8.8358,2005,
MXCR,"Colorado River Delta, Sonora, Mexico",31.5503,-114.5203,584,18.8387,2005,
TXLA,Laguna Atascosa N.W.R.,26.2391,-97.3814,573,10.0969,2005,
NYBR,L.I.: Brooklyn,40.616,-73.9448,557,6.9625,2005,
NVWL,Walker Lake,38.6922,-118.5,542,15.9412,2005,
MSEL,Eagle Lake,32.5458,-90.58,542,16.1791,2005,
LABC,Bossier-Caddo-Bienville,32.2932,-93.5026,535,5.7838,2005,
CABV,"Buena Vista, Kern County",35.2272,-119.2617,515,52.8205,2005,
TXHO,Houston,29.7497,-94.9492,514,6.1557,2005,
TXCF,Corpus Christi (Flour Bluff),27.6584,-97.2938,495,4.5413,2005,
ARWA,Wapanocca N.W.R.,35.35,-90.2333,486,6.5235,2005,
MSTU,Tupelo,34.2276,-88.7012,480,60,2005,
MSAL,Arkabutla Lake,34.7624,-90.1306,480,17.1429,2005,
WATA,Tacoma,47.2335,-122.5167,479,3.0804,2005,
CAHL,Honey Lake,40.3434,-120.4229,472,9.3005,2005,
CAOV,Oceanside-Vista-Carlsbad,33.1903,-117.2796,462,2.9148,2005,
WASB,Skagit Bay,48.2973,-122.3879,446,6.9147,2005,
NMRO,Roswell,33.397,-104.3983,415,10.641,2005,
ALEU,Eufaula N.W.R.,31.9939,-85.0886,412,7.8476,2005,
TXGA,Galveston,29.3333,-94.8333,411,2.6819,2005,
AZTI,Timber Mesa,34.2089,-109.9582,406,14.7636,2005,
CACB,Centerville Beach to King Salmon,40.642,-124.2428,400,3.0534,2005,
CASR,Santa Rosa,38.4379,-122.7116,400,3.0075,2005,
TXKI,Kingsville,27.4658,-97.8551,398,9.8882,2005,
TXCY,Cypress Creek,29.9561,-95.89,396,3.3919,2005,
CALB,Long Beach-el Dorado,33.8533,-118.0908,394,3.1968,2005,
TXLU,Lubbock County,33.5849,-101.7925,382,6.0635,2005,
ARWR,White River N.W.R.,34.3146,-91.121,378,9.1084,2005,
OREU,Eugene,44.0768,-123.179,377,1.8125,2005,
CASA,Santa Ana River Valley,33.9068,-117.4889,377,10.1892,2005,
WASD,Sequim-Dungeness,48.1,-123.0667,370,1.5152,2005,
TXLG,Longview,32.3765,-94.7162,362,3.6291,2005,
TXLR,Lake Ray Hubbard,32.9296,-96.5363,345,8.0702,2005,
TXMU,Muleshoe N.W.R.,33.9563,-102.7783,343,16.3333,2005,
WAML,Moses Lake,47.1381,-119.3214,342,8.8831,2005,
MXEP,"Ensenada de La Paz, BCS, Mexico",24.11,-110.42,337,18.4658,2005,
AZAV,Avra Valley,32.2501,-111.25,333,3.7,2005,
CASZ,Sonoma Valley,38.2931,-122.5037,332,1.6476,2005,
CAMR,Morro Bay,35.3,-120.7767,329,1.2368,2005,
CAMD,Moss Landing,36.897,-121.7407,313,1.6218,2005,
GAGC,Glynn County,31.1128,-81.4261,312,4.5547,2005,
TXRO,Rockport,28.0669,-97.1167,310,5.3448,2005,
MSJC,Jackson County,30.4366,-88.7119,310,5.082,2005,
CACS,Crystal Springs,37.5184,-122.3751,306,1.4216,2005,
CAPR,Point Reyes Peninsula,38.1216,-122.8901,303,0.6998,2005,
ORME,Medford,42.4026,-122.8559,302,3.6717,2005,
UTPR,Provo,40.2526,-111.6688,300,2.0101,2005,
COBO,Boulder,40.0256,-105.2725,298,1.0241,2005,
CALU,La Purisima,34.6616,-120.5368,297,4.8889,2005,
WAEV,Everett-Marysville,48.0833,-122.2167,294,1.9765,2005,
UTLO,Logan,41.7993,-111.8333,288,2.4407,2005,
ARFS,Fort Smith-Moffett,35.3818,-94.3766,283,8.2029,2005,
CASG,Santa Maria-Guadalupe,34.8833,-120.5833,277,6.0217,2005,
TXDA,Dallas County,32.8258,-96.8312,276,2.2716,2005,
TXEP,El Paso,31.7828,-106.4798,276,7.36,2005,
DEWI,Wilmington,39.745,-75.6399,275,1.7214,2005,
BCLA,Ladner,49.0538,-123.0573,274,1.4891,2005,
OKTU,Tulsa,36.3221,-95.9022,274,1.7621,2005,
CAWO,Woodfords,38.7662,-119.8082,274,10.5385,2005,
AZGV,Green Valley-Madera Canyon,31.7923,-110.9151,271,1.5508,2005,
CAON,Orange County (northeastern),33.7145,-117.6776,268,0.8414,2005,
CACM,Claremont,34.1384,-117.7073,268,1.9143,2005,
CAOR,Oroville,39.5178,-121.5499,267,9.6216,2005,
NVTM,Truckee Meadows,39.4679,-119.8205,266,2.9638,2005,
UTSR,Silver Reef,37.2531,-113.3675,266,4.972,2005,
SCAB,Ace Basin,32.6126,-80.4813,264,3.2195,2005,
TXFW,Fort Worth,32.7661,-97.4715,263,1.7651,2005,
VACI,Chincoteague N.W.R.,37.9672,-75.3669,262,3.0202,2005,
WAGH,Grays Harbor,46.9667,-124.05,259,1.5988,2005,
TXHA,Hagerman N.W.R.,33.7807,-96.7444,255,4.7887,2005,
LASH,Shreveport,32.5371,-93.8922,253,3.1526,2005,
NMSE,Sevilleta N.W.R.,34.3167,-106.95,253,7.6667,2005,
TXSG,San Angelo,31.4439,-100.4823,252,3.4639,2005,
TXWA,Waco,31.5194,-97.0451,246,4.4727,2005,
NCBP,Bodie-Pea Island,35.7824,-75.5458,242,3.5588,2005,
NCAR,Alligator River N.W.R.,35.77,-76.08,240,3.3803,2005,
TXHG,Harlingen,26.177,-97.6813,233,3.2138,2005,
TXAR,Aransas N.W.R.,28.2333,-96.8833,227,2.4474,2005,
AZNO,Nogales,31.4338,-110.9358,224,3.2464,2005,
CAES,Escondido,33.1025,-116.9403,224,2.1132,2005,
TXMI,Midland,31.95,-102.0333,223,4.2885,2005,
CAEC,East Contra Costa County,37.9118,-121.678,215,1.8067,2005,
ORFG,Forest Grove,45.4851,-123.1269,210,3.3071,2005,
WACC,Cowlitz-Columbia,46.1092,-122.9787,209,4.2872,2005,
VALC,Little Creek,36.8508,-76.0994,205,2.5309,2005,
KSWI,Wichita,37.6912,-97.3496,202,3.4828,2005,
CAEL,Eagle Lake,40.6299,-120.7518,201,3.1163,2005,
SCWB,Winyah Bay,33.2458,-79.2292,191,4.961,2005,
CAPP,Palos Verdes Peninsula,33.7723,-118.3279,189,1.3974,2005,
CAPC,Putah Creek,38.481,-122.0306,189,1.6258,2005,
TXCK,Choke Canyon,28.4913,-98.3082,188,3.3422,2005,
WAKA,Kent-Auburn,47.3598,-122.1787,186,1.5,2005,
LANA,Natchitoches,31.824,-93.0635,181,2.7634,2005,
CORO,Rocky Ford,38.1326,-103.679,181,5.2086,2005,
AZGC,Glen Canyon,36.9167,-111.5167,181,15.0833,2005,
CACO,Chico,39.722,-121.8238,179,4.2367,2005,
BCWR,White Rock,49.0674,-122.7167,178,0.6833,2005,
NMFA,Farmington,36.7833,-108.102,177,4.8828,2005,
CALL,Lost Lake-Fresno,36.95,-119.7,177,2.3062,2005,
TXOR,Old River,29.8776,-94.7263,176,2.4789,2005,
NMAL,Albuquerque,35.1833,-106.6167,175,1.5766,2005,
BCDU,Duncan,48.7882,-123.6714,174,1.6186,2005,
CODE,Denver,39.587,-105.143,172,1.0456,2005,
TXSA,Santa Ana N.W.R.,26.1492,-98.1917,168,1.6038,2005,
TXBP,Bolivar Peninsula,29.5504,-94.4668,166,2.2133,2005,
AZRC,Ramsey Canyon,31.4599,-110.2068,166,1.0015,2005,
CASO,San Bernardino Valley,34.0852,-117.301,166,1.5962,2005,
AZEL,Elfrida,31.6667,-109.6833,165,4.125,2005,
CASV,San Fernando Valley,34.2358,-118.5025,165,2.75,2005,
CAOA,Oakland,37.8146,-122.233,164,0.5417,2005,
ORPO,Port Orford,42.8196,-124.4828,160,2.2378,2005,
UTAI,Antelope Island,41.0047,-112.1611,160,6.9565,2005,
IDHV,Hagerman Valley,42.8167,-114.9,158,2.9811,2005,
TNRL,Reelfoot Lake,36.4167,-89.3833,158,3.1287,2005,
NYQU,L.I.: Queens,40.6932,-73.7448,158,1.9152,2005,
WIMA,Madison,43.0747,-89.3843,157,0.8674,2005,
TXLH,Lake Houston,29.94,-95.18,156,3.3913,2005,
TXDR,Del Rio,29.4651,-100.9585,156,3.7143,2005,
TXMC,Mckinney,33.1585,-96.6154,156,2.2527,2005,
ILUC,Union County,37.4676,-89.4048,156,1.5878,2005,
FLCO,Cocoa,28.3622,-80.7026,152,1.1014,2005,
ORCE,Columbia Estuary,46.2192,-123.9461,150,2.4834,2005,
TXNB,New Braunfels,29.7,-98.1167,149,1.5282,2005,
MDOC,Ocean City,38.3128,-75.2122,149,0.7968,2005,
UTZI,Zion N.P.,37.2093,-112.9804,149,1.0276,2005,
MDJB,Jug Bay,38.7532,-76.6415,147,0.8571,2005,
MSDG,Dahomey-Great River Road,33.7769,-90.9545,145,2.5551,2005,
ORRS,Roseburg-Sutherlin,43.3177,-123.3473,144,2.1022,2005,
DECH,Cape Henlopen-Prime Hook,38.8072,-75.1878,141,1.3656,2005,
WAWK,Wahkiakum,46.1917,-123.4667,141,2.1203,2005,
CASB,Santa Barbara,34.4512,-119.7627,140,0.5639,2005,
CAMC,Marin County (southern),37.9214,-122.5643,138,0.5267,2005,
WAEA,East Lake Washington,47.5899,-121.9995,137,2.6602,2005,
CAPS,Pasadena-San Gabriel Valley,34.1199,-118.0913,136,1.314,2005,
SCSN,Santee N.W.R.,33.5104,-80.408,136,1.8824,2005,
TXAB,Abilene,32.3501,-99.7502,134,2.6019,2005,
SCCA,Charleston,32.9333,-79.7,132,2.7216,2005,
NMSC,Silver City,32.7381,-108.262,132,2.2857,2005,
AZPT,Phoenix-Tres Rios,33.3725,-112.3582,130,0.8012,2005,
CABB,Big Bear Lake,34.2833,-116.9,129,4.1613,2005,
BCVI,Victoria,48.4667,-123.4,128,0.3174,2005,
AZSV,Salt Verde River,33.639,-111.616,127,0.6106,2005,
NMLC,Las Cruces,32.3,-106.7167,123,1.5375,2005,
ORBR,Brownsville,44.3536,-122.9671,123,2.4118,2005,
ARBD,Bayou DeView,34.872,-91.2917,122,1.3481,2005,
WAOL,Olympia,47.0722,-122.8533,121,0.6142,2005,
NYSN,L.I.: Southern Nassau County,40.6298,-73.5907,121,0.5803,2005,
TXFR,Freeport,29.0172,-95.3551,120,0.5178,2005,
CATE,Tehachapi,35.1097,-118.4503,118,1.5733,2005,
OKWA,Washita N.W.R.,35.6495,-99.2797,117,2.962,2005,
SCMC,McClellanville,33.1003,-79.4037,115,1.6312,2005,
AZHV,Havasu N.W.R.,34.4525,-114.3107,113,2.0179,2005,
TNME,Memphis,35.15,-89.9333,112,2.9091,2005,
FLZE,Zellwood-Mount Dora,28.7309,-81.6062,112,0.9697,2005,
TXPA,Port Aransas,27.8502,-97.1,111,1.11,2005,
TXLV,Lewisville,33.0301,-96.9929,111,1.2437,2005,
FLAL,Alafia Banks,27.792,-82.3349,110,2.3784,2005,
COLO,Longmont,40.1741,-105.1734,106,1.0418,2005,
MSNO,Noxubee N.W.R.,33.2711,-88.7837,105,1.4094,2005,
WAED,Edmonds,47.8524,-122.2489,102,2.2418,2005,
ARHB,Holla Bend N.W.R.,35.166,-93.1382,102,1.1397,2005,
MOOF,Orchard Farm,38.8793,-90.4462,100,2.1164,2005,
ILHL,Horseshoe Lake,37.2089,-89.3311,100,1.2579,2005,
ORYB,Yaquina Bay,44.5866,-124.0642,100,1.6878,2005,
IDNA,Nampa,43.568,-116.6729,99,1.5231,2005,
TXVI,Victoria,28.8723,-97.0784,99,1.3289,2005,
CAFR,Fall River Mills,41.0616,-121.4899,97,2.0638,2005,
LANO,New Orleans,30.0236,-89.9167,97,1.4923,2005,
VAFB,Fort Belvoir,38.709,-77.1939,95,0.2621,2005,
OKSC,Stephens County,34.5667,-97.7833,95,1.6102,2005,
OKTI,Tishomingo N.W.R.,34.1833,-96.65,94,2.1988,2005,
WASA,Satsop,46.9834,-123.7167,92,1.256,2005,
WABG,Bellingham,48.8112,-122.5629,91,0.4697,2005,
TXUC,Uvalde County,29.2096,-99.7862,91,3.64,2005,
CAVE,Ventura,34.3484,-119.1921,91,0.8922,2005,
FLJA,Jacksonville,30.4152,-81.4877,90,0.5294,2005,
IDBO,Boise,43.6177,-116.1995,88,1.2754,2005,
MXRC,"Rio Corona, Tamaulipas, Mexico",23.9333,-98.9333,88,8.8,2005,
CADN,Del Norte County,41.8446,-124.1712,88,0.9944,2005,
TXSR,Sea Rim S.P.,29.7334,-93.9563,88,0.9462,2005,
TXGC,Gibbons Creek,30.5833,-96,87,1.5818,2005,
TNCC,Cross Creeks N.W.R.,36.476,-87.7528,87,2.175,2005,
MDLK,Lower Kent County,39.1427,-76.1921,87,0.9775,2005,
FLSP,St. Petersburg,27.7991,-82.6794,86,0.7679,2005,
NMSR,Santa Rosa,34.9521,-104.6703,85,2.1795,2005,
NJHR,Hackensack-Ridgewood,40.9351,-74.0292,84,0.9853,2005,
MXES,"Ensenada, Baja California, Mexico",31.8002,-116.6335,84,1.0402,2005,
CASF,San Francisco,37.7143,-122.4689,83,0.4568,2005,
VANR,Nansemond River,36.8472,-76.4333,82,1.2331,2005,
TXCC,Corpus Christi,27.8334,-97.5833,81,1.0385,2005,
CAWB,Wallace-Bellota,38.1167,-120.9833,81,0.9101,2005,
NMLA,Lakes Avalon-Brantley,32.5661,-104.294,79,1.512,2005,
AZML,Mormon Lake,35,-111.45,79,3.6322,2005,
TXNA,Nacogdoches,31.5332,-94.6563,78,0.6393,2005,
AZMY,Martinez Lake-Yuma,32.8884,-114.4623,78,0.963,2005,
MOMI,Mingo N.W.R.,36.9833,-90.2,77,2,2005,
AZFL,Flagstaff-Mt. Elden,35.241,-111.5976,77,1.75,2005,
COFC,Fort Collins,40.6454,-105.1141,77,0,2005,
TXBV,Brownsville,25.9328,-97.4748,76,6.6087,2005,
BCCH,Chilliwack,49.1113,-121.9436,76,0.8107,2005,
CAMA,Marysville,39.2,-121.5,75,1.1628,2005,
LACA,Catahoula N.W.R.,31.508,-92.0589,75,1.2821,2005,
WASE,Seattle,47.6017,-122.3341,74,0.2046,2005,
TNSA,Savannah,35.1632,-88.1666,73,1.187,2005,
TXLO,Lake O' the Pines,32.8001,-94.5947,73,0.9359,2005,
TXLK,Lake Tawakoni,32.7667,-95.9167,70,0.8889,2005,
OKSP,Salt Plains N.W.R.,36.785,-98.1789,70,1.0938,2005,
NJOC,Oceanville,39.4422,-74.4605,70,0.8861,2005,
ORPR,Prineville,44.3668,-120.75,69,1.15,2005,
ORPD,Portland,45.5167,-122.7,67,0.2535,2005,
CAMU,Malibu,34.0822,-118.7045,67,0.3918,2005,
TXBA,Balmorhea,30.9858,-103.7459,67,2.0303,2005,
MSWC,Washington County (south),33.097,-90.9857,67,1.4486,2005,
CALR,Lake Almanor,40.2833,-121.25,66,1.5904,2005,
ORCB,Coos Bay,43.3759,-124.2973,66,0.5238,2005,
OKOC,Oklahoma City,35.5368,-97.5834,65,0.625,2005,
ORGP,Grants Pass,42.4186,-123.3669,62,0.9358,2005,
CAID,Idyllwild,33.7112,-116.7691,61,1.0517,2005,
UTKA,Kanab,37.0334,-112.5167,60,0.1215,2005,
ARBL,Big Lake N.W.R.,35.8874,-90.1227,60,1.6327,2005,
ORTB,Tillamook Bay,45.5167,-123.8833,60,0.8219,2005,
TXTE,Texarkana,33.2784,-94.2082,59,2.433,2005,
ARCO,Conway,35.0916,-92.4227,59,0.6782,2005,
AZGR,Gila River,33.3071,-112.6833,59,0.3512,2005,
GACI,Cumberland Island,30.8151,-81.4673,58,0.7838,2005,
LALA,Lafayette,30.1901,-92.1042,58,1.0175,2005,
ILCV,Collinsville,38.7081,-89.9588,57,1.0806,2005,
TXWF,Wichita Falls,33.8877,-98.6298,57,2.4783,2005,
TXAZ,Anzalduas-Bentsen,26.2235,-98.3944,56,0.64,2005,
GAAU,Augusta,33.4393,-82.0239,56,0.6727,2005,
DEBH,Bombay Hook N.W.R.,39.2152,-75.4822,55,0.593,2005,
MSML,Moon Lake (Lula),34.4937,-90.4931,55,5.7895,2005,
TXPM,Palmetto S.P.,29.5833,-97.5833,54,0.864,2005,
KYLB,Land Between the Lakes,36.9367,-88.1683,54,1.0385,2005,
CAAN,A–o Nuevo,37.2147,-122.3182,53,0.3323,2005,
VABB,Back Bay N.W.R.,36.65,-76,53,0.8154,2005,
CAYR,Yreka,41.7495,-122.5247,52,0.8739,2005,
TXFD,Falcon Dam and S.P.,26.4967,-99.0884,52,1.8909,2005,
OHBL,Buckeye Lake,39.9333,-82.4833,51,2.04,2005,
TXWW,Welder Wildlife Refuge,28.1136,-97.4171,51,2.125,2005,
NCWI,Wilmington,34.1401,-77.8936,51,0.534,2005,
OKSE,Sequoyah,34.4985,-94.9695,49,1.2405,2005,
TXCS,College Station,30.593,-96.3175,49,0.7597,2005,
VACC,Cape Charles,37.1899,-75.941,48,0.384,2005,
MSSH,Southern Hancock County,30.2906,-89.5034,47,0.6395,2005,
NJLH,Lower Hudson,40.7751,-74.0009,47,0.3219,2005,
BCVA,Vancouver,49.2603,-123.105,47,0.1146,2005,
NYQW,L.I.: Quogue-Watermill,40.8591,-72.4524,46,0.9684,2005,
UTBR,Bear River Migratory Bird Refuge,41.4804,-112.2675,46,3.5385,2005,
CORA,Rawhide Energy Station,40.8628,-105.1431,46,1.0222,2005,
TXBZ,Brazos Bend,29.3734,-95.6688,45,2.25,2005,
FLNA,Naples,26.1278,-81.7645,45,0.41,2005,
CAUK,Ukiah,39.1386,-123.166,45,0.7087,2005,
WASJ,San Juan Islands Archipelago,48.5462,-123.013,45,0.4296,2005,
COCS,Colorado Springs,38.8022,-104.8167,44,0.3946,2005,
OKNO,Norman,35.2655,-97.3767,44,0.704,2005,
TXBN,Burnet County,30.7514,-98.275,43,5.375,2005,
ILCY,Cypress Creek,37.319,-89.0213,42,0.4108,2005,
ORFL,Florence,44.0334,-124.0667,42,0.4706,2005,
NMCA,Caballo,32.953,-107.3122,41,0.7421,2005,
OKFG,Fort Gibson Reservoir,35.85,-95.3167,41,0.8039,2005,
LALR,Butte La Rose,30.2833,-91.6833,41,5.125,2005,
NMLL,La Luz-Otero County,33,-105.96,40,0.8163,2005,
ILCT,Clinton Lake,40.1668,-88.7999,40,1,2005,
CASP,Springville,36.1338,-118.813,39,0.3645,2005,
WAOH,Oak Harbor,48.2646,-122.6805,39,0.3679,2005,
NCGR,Greensboro,36.1163,-79.837,39,0.4358,2005,
MXEJ,"Ejido San Pedro, Chihuahua, Mexico",30.7765,-108.4658,38,1.1259,2005,
NMSF,Santa Fe,35.6714,-105.9301,38,0.6909,2005,
TXCT,Coastal Tip,26.0278,-97.2334,38,4.75,2005,
MOBO,Big Oak Tree S.P.,36.6667,-89.2667,37,1.0725,2005,
BCAM,Abbotsford-Mission,49.1136,-122.3031,37,0.4444,2005,
TXCR,Crawford,31.556,-97.3556,37,0.7327,2005,
TXCP,Chaparral W.M.A.,28.3609,-99.3429,36,0.6667,2005,
TXBU,Bell County,30.9667,-97.45,35,0.733,2005,
CASE,South Lake Tahoe,38.9412,-120.001,35,0.9459,2005,
NCCH,Cape Hatteras,35.2188,-75.6067,34,0.3063,2005,
AZSC,Santa Catalina Mountains,32.3353,-110.7295,33,0.3267,2005,
NCCB,Central Beaufort County,35.4719,-76.9344,33,0.8684,2005,
TNCH,Chattanooga,35.104,-85.2292,32,0.3333,2005,
LADA,D'Arbonne,32.6583,-92.241,32,0.2,2005,
ILCO,Crab Orchard N.W.R.,37.7196,-89.0212,32,0.8533,2005,
MSVI,Vicksburg,32.3108,-90.9068,31,0.6139,2005,
NCRA,Raleigh,35.7622,-78.6593,31,0.337,2005,
NJBA,Barnegat,39.6667,-74.1667,30,0.3141,2005,
ILCI,Chillicothe,40.8966,-89.4966,30,0.5769,2005,
TXPS,Palestine,31.7624,-95.7664,30,3.3333,2005,
WATO,Toppenish N.W.R.,46.3609,-120.4179,30,0.48,2005,
NYSM,L.I.: Smithtown,40.9133,-73.1386,30,0.1935,2005,
CACI,Santa Clarita,34.4499,-118.4982,30,0.6452,2005,
NMCM,Cimarron,36.2927,-104.5324,30,0.8571,2005,
ONHA,Hamilton,43.2679,-79.8852,30,0.1221,2005,
ORKF,Klamath Falls,42.1595,-121.7351,29,0.6073,2005,
CABI,Bishop,37.3611,-118.4776,29,0.3178,2005,
WAKC,Kitsap County,47.6323,-122.6609,28,0.25,2005,
CODL,Delta,38.7714,-108.0394,28,0.6627,2005,
LASA,Sabine N.W.R.,29.8545,-93.3892,27,0.75,2005,
COPR,Pueblo Reservoir,38.2354,-104.7857,27,0.3313,2005,
WATC,Tri-Cities,46.2357,-119.1805,26,0.1857,2005,
FLNR,West Pasco (New Port Richey),28.2604,-82.6949,26,0.1566,2005,
WAYV,Yakima Valley,46.5919,-120.4555,26,0.3714,2005,
NJLB,Long Branch,40.2502,-74.0554,26,0.2291,2005,
BCPM,Pitt Meadows,49.2839,-122.6729,26,0.1431,2005,
OKST,Stillwater,36.1452,-97.1765,26,0.3323,2005,
GAMA,Macon,32.8321,-83.6663,26,0.4685,2005,
MOJO,Joplin,37.0548,-94.4602,26,0.6082,2005,
CADM,Diamond Valley,33.627,-117.018,26,3.25,2005,
FLHC,Hamilton County,30.336,-82.7595,26,0.6303,2005,
INSU,Sullivan County,39.1029,-87.4253,25,0.4348,2005,
OHOT,Ottawa N.W.R.,41.6114,-83.2006,25,0.2732,2005,
FLAB,Aripeka-Bayport,28.4667,-82.5833,25,0.5495,2005,
FLTT,Ten Thousand Islands,25.95,-81.62,24,0.1879,2005,
ILBH,"Bird Haven Sanctuary, Olney",38.7529,-88.076,24,0.4068,2005,
KSOP,Oskaloosa-Perry Lake,39.2014,-95.4032,24,0.7869,2005,
MIMW,Muskegon Wastewater,43.2642,-85.9481,24,0.6857,2005,
ARFA,Fayetteville,36.0566,-94.1719,23,0.358,2005,
TNCO,Columbia,35.599,-87.1613,23,0.6571,2005,
DEMI,Middletown,39.4753,-75.6347,23,0.2054,2005,
FLBA,Bradenton,27.501,-82.5631,23,0.0991,2005,
FLSR,Sarasota,27.2841,-82.4976,22,0.1594,2005,
TXRL,Robert Lee,31.9161,-100.4999,22,0.5906,2005,
TXBB,Bastrop-Buescher State Parks,30.0866,-97.2484,22,0.3271,2005,
KSOL,Olathe,38.9127,-94.8521,22,0.5867,2005,
INMT,Muscatatuck N.W.R.,38.9594,-85.7983,22,0.8462,2005,
TNCV,Cookeville,36.1448,-85.4747,22,0.3177,2005,
BCPA,Port Alberni,49.2573,-124.814,22,0.4093,2005,
TXLS,La Sal Vieja,26.4849,-97.9649,21,0.253,2005,
GALO,Lake Oconee,33.612,-83.2823,21,0.3443,2005,
LACB,Claiborne,32.78,-92.95,21,0.3401,2005,
UTOG,Ogden,41.2198,-112.064,21,0.4641,2005,
TXAM,Amarillo,34.9851,-101.7021,20,0.6667,2005,
OKWM,Wichita Mountains Wildlife Refuge,34.7333,-98.6667,20,0.2381,2005,
UTFS,Fish Springs N.W.R.,39.8107,-113.399,20,1.4286,2005,
TNKN,Knoxville,35.9136,-84.0796,20,0.1606,2005,
PAGL,Delaware County (Glenolden),39.8992,-75.3729,19,0.116,2005,
HILA,Laysan Island,25.7691,-171.7331,19,2.7143,2005,
NVAM,Ash Meadows N.W.R.,36.4253,-116.2915,19,1.7674,2005,
FLLA,Lakeland,28.0261,-81.8507,19,0.1439,2005,
MXRR,"Rancho Rincon de Anacahuitas, Tamaulipas, Mexico",25.5833,-97.5,19,2.2353,2005,
VANN,Newport News,37.0799,-76.3956,18,0.171,2005,
NMCC,Carlsbad Caverns N.P.,32.1772,-104.5029,18,0.2028,2005,
ILCS,Crane Lake-Sangamon,40.1233,-90.2323,18,0.3789,2005,
COGR,Greeley,40.3936,-104.6801,18,0.375,2005,
KYCC,Calloway County,36.6003,-88.1999,18,0.6792,2005,
COPU,Pueblo,38.1753,-104.5196,18,0.4,2005,
FLSB,South Brevard County,27.8486,-80.55,17,0.1232,2005,
ORSU,Summer Lake,42.9731,-120.7778,17,0.7083,2005,
MOSP,Springfield,37.2174,-93.239,17,0.17,2005,
TXKV,Kerrville,30.0646,-99.1757,16,0.3422,2005,
INEV,Evansville,37.9776,-87.5752,16,0.2286,2005,
IADM,Des Moines,41.6004,-93.7037,16,0.2712,2005,
ALMT,Mobile-Tensaw Delta,30.75,-87.95,16,0.64,2005,
FLTA,Tampa,28.0107,-82.4595,16,0.1684,2005,
VAWA,Walkerton,37.6809,-77.0313,16,0.1844,2005,
ARTE,Texarkana,33.4725,-93.9215,16,0.5614,2005,
TXGR,Granger,30.7062,-97.4019,16,0.1641,2005,
MXGJ,"Guadalajara, Jalisco, Mexico",20.6708,-103.2976,16,0.4103,2005,
TNCY,Clay County,36.4995,-85.3667,16,0.2735,2005,
AZCF,Carefree,33.8594,-111.902,16,0.0968,2005,
CACR,Calero-Morgan Hill,37.1897,-121.7617,15,0.0862,2005,
NCPD,Pee Dee N.W.R.,35.1167,-80.05,15,0.5357,2005,
NMLV,Las Vegas,35.595,-105.2152,15,0.5085,2005,
FLEM,Emeralda-Sunnyhill,28.85,-81.8501,15,0.1062,2005,
AZPO,Portal,31.9009,-109.1364,15,0.1034,2005,
WALP,Leadbetter Point,46.5605,-123.9894,15,0.2844,2005,
NYRC,Rockland County,41.148,-73.9895,14,0.1421,2005,
WAPT,Port Townsend,48.05,-122.7333,14,0.1623,2005,
MSJA,Jackson,32.4476,-90.004,14,0.1824,2005,
MOSC,Loess Bluffs (formerly Squaw Creek) N.W.R.,40.0833,-95.2667,14,0.3182,2005,
ALWA,Waterloo,34.8333,-88.0002,14,0.1918,2005,
UTJR,Jordan River,40.4526,-111.9135,14,0.3027,2005,
ILPM,Pere Marquette Park,38.9968,-90.6051,14,0.2534,2005,
OKSL,Sooner Lake,36.4032,-97.0672,14,0.6829,2005,
CASU,San Juan Capistrano,33.5096,-117.6078,13,0.0945,2005,
WAVA,Vashon,47.4332,-122.5067,13,0.0954,2005,
TXWR,White River,33.482,-101.1082,13,0.2955,2005,
SCLP,Litchfield-Pawleys Island,33.4908,-79.0904,13,0.0987,2005,
NMLO,Loving,32.291,-104.0667,13,0.3421,2005,
TXCA,Caddo National Grasslands,33.7405,-96.0024,13,0.2826,2005,
PALB,Southern Bucks County,40.1765,-74.8971,13,0.0959,2005,
ILCE,Carlyle Lake,38.7,-89.2667,13,0.2241,2005,
BCNN,Nanaimo,49.1668,-123.9333,13,0.0857,2005,
CABR,Bear Valley Springs,35.0945,-118.661,13,0.2063,2005,
VAAC,Augusta County,38.2046,-78.9913,13,0.2385,2005,
FLST,Stuart,27.2121,-80.2624,12,0.0784,2005,
NCSH,Shelby,35.2951,-81.5743,12,0.6316,2005,NC
INPC,Posey County,37.8924,-87.9421,12,0.2449,2005,
KYLE,Lexington,37.9227,-84.4719,12,0.1412,2005,
MOHF,Horton-Four Rivers,38.02,-94.357,12,0.2824,2005,
DERE,Rehoboth,38.6035,-75.1073,12,0.1304,2005,
ILML,"Mermet Lake, Massac County",37.2,-88.75,12,0.1702,2005,
SCLC,Long Cane,34,-82.3333,12,0.4615,2005,
NVDG,Desert Game Range,36.3276,-115.3125,12,0.6154,2005,
NYSI,Staten Island,40.5833,-74.15,12,0.1368,2005,
AZSE,Sedona,34.8391,-111.8802,12,0.1798,2005,
DCDC,Washington,38.8674,-77.0685,11,0.0585,2005,
CAAA,Auburn,38.9758,-121.1438,11,0.0596,2005,
NYCA,L.I.: Captree,40.7038,-73.2493,11,0.1,2005,
NCPC,Pamlico County,35.1435,-76.6526,11,0.2651,2005,
FLEP,East Pasco,28.3103,-82.2374,11,0.2588,2005,
OKRC,Rogers County,36.3722,-95.6326,11,0.419,2005,
AZSD,St. David,31.8908,-110.1265,11,0.275,2005,
TXBO,Boerne,29.8666,-98.7901,11,0.156,2005,
COPE,Penrose,38.3907,-105.144,11,0.2157,2005,
COLV,Loveland,40.4077,-105.1653,11,0.1306,2005,
HIKU,Moloka'i: Kualapu'u,21.1333,-157.0167,10,0.4938,2005,
NCPE,Pettigrew S.P.,35.7667,-76.45,10,0.1754,2005,
FLLO,Long Pine Key,25.3568,-80.7186,10,0.2381,2005,
MTBL,Billings,45.8167,-108.4333,10,0.1102,2005,
LAGI,Grand Isle,29.1996,-90.0458,10,0.2381,2005,
ILSP,Springfield,39.8,-89.65,10,0.1149,2005,
ILMF,Middle Fork River Valley,40.247,-87.7009,10,0.1732,2005,
BCCO,Comox,49.6726,-124.9287,10,0.1361,2005,
NCCP,Chapel Hill,35.9131,-79.0558,9,0.0624,2005,
INTH,Terre Haute,39.4165,-87.407,9,0.0882,2005,
AZJE,Jerome,34.7398,-112.1238,9,0,2005,
KSLS,Liberal-Seward County,37.1222,-100.8574,9,0.5294,2005,
TXQN,Quanah,34.3285,-99.6831,9,0.2045,2005,
TXBF,Buffalo Bayou,29.7715,-95.5699,9,0.0716,2005,
MDSD,Southern Dorchester County,38.3617,-76.0371,9,0.0909,2005,
LANI,New Iberia,30.0017,-91.8949,8,0.3478,2005,
IAJA,Jamaica,41.789,-94.3375,8,0.2207,2005,
VAHO,Hopewell,37.367,-77.2842,8,0.0656,2005,
NCNB,New Bern,35.05,-77.0833,8,0.1151,2005,
NVRL,Ruby Lake,40.2,-115.5,8,0.3636,2005,
NCHC,Henderson County,35.343,-82.553,8,0.1123,2005,
INOR,Ohio River,39.1021,-84.9016,8,0.2623,2005,
IDAF,American Falls Reservoir,42.9833,-112.7,8,0.4706,2005,
OHWO,Wooster,40.7464,-82.0189,8,0.0877,2005,
ORIV,Illinois Valley,42.1667,-123.5667,8,0.2667,2005,
ILNE,Newton,38.0441,-88.3181,8,0.1871,2005,
NYCS,L.I.: Central Suffolk County,40.8333,-72.7838,8,0.0775,2005,
AZPY,Payson,34.35,-111.35,8,0.2581,2005,
MSNA,Natchez,31.6167,-91.3792,8,0.127,2005,
UTSG,St. George,37.15,-113.6,8,0.1379,2005,
NMZU,Zuni,35.0333,-108.8167,7,0.1628,2005,
TXWP,Westcave Preserve,30.3553,-98.0296,7,0.0769,2005,
NMCL,Clayton,36.5177,-103.2546,7,0.2692,2005,
VABK,Brooke,38.3703,-77.3287,7,0.0892,2005,
NYNN,L.I.: Northern Nassau County,40.866,-73.5938,7,0.0441,2005,
NCRK,Roanoke Rapids,36.4025,-77.5651,7,0.7179,2005,
WAPB,Padilla Bay,48.4834,-122.5667,7,0.0438,2005,
FLSM,St. Marks,30.1536,-84.2227,7,0.094,2005,
AZBW,Bill Williams Delta,34.3002,-114.0928,7,0.1373,2005,
WALY,Lyle,45.6833,-121.2333,7,0.1315,2005,
FLCE,Coot Bay-Everglades N.P.,25.141,-80.9582,7,0.1111,2005,
NVEL,Elko,40.7426,-115.6987,7,0.1458,2005,
CALW,LaGrange-Waterford,37.6531,-120.5876,6,0.1,2005,
ILJC,Jackson County,37.7167,-89.35,6,0.0927,2005,
UTCC,Cedar City,37.685,-113.111,6,0.0923,2005,
FLLP,Lake Placid,27.2601,-81.3441,6,0.0612,2005,
CAMS,Mount Shasta,41.5342,-122.4141,6,0.0886,2005,
OHPC,Paint Creek Area,39.2622,-83.445,6,0.1818,2005,
LAPP,Pine Prairie,30.7643,-92.3765,6,0.1067,2005,
RISK,South Kingstown,41.4295,-71.5588,6,0.0596,2005,
CARE,Redding,40.6194,-122.4458,6,0.0811,2005,
OKSV,Spavinaw,36.4,-94.9501,6,0.1165,2005,
MSSL,Sardis Lake,34.47,-89.7222,6,0.1154,2005,
WACL,Chelan,47.8335,-120.0833,6,0.1043,2005,
LABR,Baton Rouge,30.3661,-91.1194,6,0.046,2005,
NYBW,Bronx-Westchester Region,40.9117,-73.7825,6,0.0284,2005,
NJCM,Cape May,39.0123,-74.8778,6,0.0298,2005,
AZCV,Camp Verde,34.5873,-111.7545,5,0.093,2005,
KSLA,Lawrence,38.9933,-95.3111,5,0.0518,2005,
ORSL,Silverton,44.966,-122.7065,5,0.1087,2005,
OKLA,Lake Atoka,34.5497,-95.97,5,0.098,2005,
MXNP,"Navopatia, Sonora, Mexico",26.4,-109.2333,5,0.1527,2005,
ONSL,St. Clair N.W.A.,42.3667,-82.35,5,0.0694,2005,
MOMA,Maryville,40.3463,-94.9198,5,0.1471,2005,
MAGB,Greater Boston,42.3973,-71.0955,5,0.0118,2005,
MOPB,Poplar Bluff,36.7676,-90.4149,5,0.1156,2005,
NYBU,Buffalo,43.0016,-78.9651,5,0.0394,2005,
NESC,Scottsbluff,41.8674,-103.6408,5,0.1481,2005,
TXBS,Big Spring,32.2391,-101.4162,5,0.2083,2005,
FLKW,Key West,24.5808,-81.7046,5,0.1163,2005,
FLGA,Gainesville,29.6027,-82.3127,5,0.0292,2005,
MANA,Nantucket,41.2901,-70.0901,5,0.0427,2005,
INPY,Plymouth,41.2754,-86.3621,5,0.5263,2005,
CTNH,New Haven,41.3007,-72.9323,5,0.0273,2005,
PALZ,Lititz,40.2261,-76.3024,4,0.0274,2005,
INTI,Tippecanoe,41.3237,-85.7887,4,0.097,2005,
ALGS,Gulf Shores,30.3167,-87.6333,4,0.0292,2005,
WAWW,Walla Walla,46.0667,-118.2333,4,0.0567,2005,
ILHP,Hennepin,41.2552,-89.3389,4,0.1441,2005,
VAGS,Glade Spring,36.7883,-81.7787,4,0.0714,2005,
ILWM,Western Mercer County,41.1702,-90.9198,4,0.0909,2005,
BEBE,Bermuda,32.3058,-64.7585,4,0.0576,2005,
WYCA,Casper,42.7834,-106.4333,4,0.0443,2005,
TXAY,Armand Bayou,29.5498,-95.0489,4,0.0473,2005,
TXOC,Orange County,30.0741,-93.905,4,0.1168,2005,
ONTO,Toronto,43.7086,-79.4104,4,0.0189,2005,
ILBL,Baldwin Lake-Kaskaskia River Valley,38.2858,-89.8397,4,0.0988,2005,
ARLR,Little Rock,34.7582,-92.2792,4,0.0548,2005,
OKBB,Broken Bow Reservoir,34.0554,-94.7048,4,0.1127,2005,
NJGS,Great Swamp-Watchung Ridges,40.6983,-74.4017,4,0.0449,2005,
INLM,Lake Monroe,39.0152,-86.3984,4,0.0381,2005,
NJSA,Salem,39.614,-75.4142,4,0.05,2005,
NCDU,Durham,36.0868,-78.8907,4,0.0447,2005,
TNHP,Hickory-Priest,36.1926,-86.6634,4,0.0755,2005,
AKKO,Kodiak,57.75,-152.4833,4,0.0492,2005,RC
TNJA,Jackson,35.6119,-88.8205,4,0.4,2005,
CAKR,Kern River Valley,35.6625,-118.4588,4,0.0494,2005,
CALH,Lake Henshaw,33.2112,-116.7255,4,0.0502,2005,
TNHI,Hiwassee,35.3655,-84.92,4,0.0661,2005,
ILRL,Rend Lake,38.1324,-88.9677,4,0.0645,2005,
TNWH,White County,35.9082,-85.598,4,0.0884,2005,
CACU,Cachuma,34.6501,-119.9516,4,0.0563,2005,
NCSB,Southport-Bald Head-Oak Islands,33.9388,-78.0265,4,0.0411,2005,
OHCS,Caesar Creek-Spring Valley,39.501,-84.0224,3,0.0118,2005,
TXSC,Spring Creek,30.1268,-95.4432,3,0.0789,2005,
COMV,Monte Vista N.W.R.,37.497,-106.0461,3,0.12,2005,
OHDA,Dayton,39.82,-84.1794,3,0.044,2005,
PRCR,Cabo Rojo,18.0133,-67.1176,3,0.2308,2005,
BCNB,Nanoose Bay,49.285,-124.1357,3,0.0476,2005,
LAFP,Fort Polk,31.334,-93.439,3,0.0882,2005,
HIWO,O'ahu: Waipi'o,21.4618,-158.0128,3,0.0667,2005,
LANS,Northshore-Slidell,30.25,-89.7933,3,0.0436,2005,
PASL,Southern Lancaster County,39.8172,-76.1698,3,0.0147,2005,
MIBT,Battle Creek,42.3767,-85.2795,3,0.05,2005,
CADV,Death Valley,36.4619,-116.8668,3,0.0526,2005,
CARM,Redlands (Mill Creek),34.1025,-116.9999,3,0.06,2005,
OHHF,Hamilton-Fairfield,39.4004,-84.536,3,0.1364,2005,
NJBO,Boonton,40.85,-74.3833,3,0.0297,2005,
NCWS,Winston-Salem,36.084,-80.3067,3,0.0226,2005,
BCSI,Skidegate Inlet,53.2112,-131.9876,3,0.1304,2005,GD
MSLC,Lauderdale County,32.4676,-88.723,3,0.0462,2005,
MDSA,Salisbury,38.3333,-75.7333,3,0.0354,2005,
NMES,Espanola,35.9905,-106.073,3,0.075,2005,
IDSP,Sandpoint,48.2749,-116.5624,3,0.1667,2005,
OHCL,Cleveland,41.5723,-81.5039,3,0.0324,2005,
KSLC,Linn County,38.2833,-94.75,3,0.0686,2005,
INBO,Big Oaks N.W.R.,38.9486,-85.4207,3,0.1333,2005,
NMMA,Maxwell N.W.R.,36.5954,-104.6499,3,0.1935,2005,
VAWI,Williamsburg,37.2792,-76.6987,3,0.0354,2005,
FLWV,West Volusia County,29.0543,-81.3039,3,0.049,2005,
MIMI,Midland,43.5667,-84.25,3,0.0719,2005,
ORUC,Union County,45.25,-117.8833,3,0.0417,2005,
TXBE,Beech Creek,30.7667,-94.2,3,0.0638,2005,
TXBC,Balcones Canyonlands,30.6042,-98.0179,3,0.0335,2005,
TXDM,Davis Mountains,30.647,-104.0093,3,0.0407,2005,
MDSM,Sugarloaf Mountain,39.2841,-77.392,3,0.0217,2005,
MODC,Dallas County,37.7167,-92.9833,3,0.3,2005,
MOKC,Kansas City,38.9488,-94.4049,2,0.0476,2005,
NSAN,Antigonish,45.6007,-61.9143,2,0.0396,2005,
ORHR,Hood River,45.6167,-121.5667,2,0.0285,2005,
BCOO,Oliver-Osoyoos,49.0787,-119.5164,2,0.0204,2005,
FLCB,Choctawhatchee Bay,30.4462,-86.5182,2,0.0202,2005,
RIBI,Block Island,41.2324,-71.5777,2,0.0402,2005,
COSL,Sterling,40.6966,-103.2219,2,0.0777,2005,
MOCC,Clarence Cannon N.W.R.,39.1667,-90.7808,2,0.0317,2005,
COBR,Bonny Reservoir,39.6307,-102.1845,2,0.0513,2005,
CAWC,Willow Creek,40.95,-123.6667,2,0.0345,2005,
BANP,"New Providence Island, Bahamas",25.0541,-77.3968,2,0.0476,2005,
CNSA,"Saipan, C.N.M.I.",15.1991,145.7506,2,0.125,2005,
GUDE,"Dededo, Guam",13.5502,144.85,2,0.1509,2005,
INWG,Western Gibson County,38.3406,-87.7807,2,0.0513,2005,
COGJ,Grand Junction,39.1208,-108.6081,2,0.013,2005,
KYFR,Frankfort,38.2271,-84.8525,2,0.0541,2005,
MOML,Montrose Lake Wildlife Area,38.2521,-93.8217,2,0.0423,2005,
FLSC,Sanibel-Captiva,26.4594,-82.1567,2,0.0183,2005,
BCSO,Sooke,48.3442,-123.6719,2,0.012,2005,
IDTF,Twin Falls,42.5565,-114.4635,2,0.0656,2005,
TXTY,Tyler,32.2777,-95.2991,2,0.0273,2005,
BCVE,Vernon,50.2686,-119.2769,2,0.0186,2005,
PAER,Erie,42.0833,-80.0333,2,0.0412,2005,
OHOX,Oxford,39.5078,-84.7169,2,0.0111,2005,
OKAN,Arnett,36.0569,-99.8103,2,0.1111,2005,
NJTU,Tuckerton,39.6,-74.35,2,0.04,2005,
AKJU,Juneau,58.3167,-134.55,2,0.031,2005,
MIMO,Monroe,41.8731,-83.4425,2,0.031,2005,
IACL,Clinton,41.9801,-90.174,2,0.064,2005,
IASC,Sioux City,42.4914,-96.4072,2,0.0519,2005,
BCCR,Campbell River,49.9666,-125.2088,2,0.0236,2005,
NLSJ,St. Johns,47.5833,-52.7239,2,0.0351,2005,
MOTC,Taney County,36.607,-93.183,2,0.0314,2005,
ILQU,Quincy,39.9318,-91.3965,2,0.0392,2005,
NMCH,Clabber Hill Ranch,35.225,-104.75,2,0.0727,2005,
OHLK,Lakewood,41.4602,-81.8576,2,0.0332,2005,
MAMV,Martha's Vineyard,41.3571,-70.5207,2,0.0192,2005,
ILKV,Kankakee Valley,41.1209,-87.8674,2,0.028,2005,
SCSP,Spartanburg,34.9,-81.95,2,0.0339,2005,nc
ABHR,High River,50.5816,-113.8693,2,0.0351,2005,
MSCR,Corinth,34.9391,-88.519,2,0.08,2005,
VIEE,"East End, St. Croix, USVI",17.7572,-64.5602,2,0.0889,2005,
TNFR,Franklin-Coffee County,35.302,-86.0567,2,0.1212,2005,
BC4C,Castlegar,49.3403,-117.5889,2,0.0331,2005,
NJRE,Raritan Estuary,40.5167,-74.35,2,0.0136,2005,
BAAO,"Abaco Island, Bahamas",26.0418,-77.2569,2,0.0208,2005,
MOLI,Liberal,37.4762,-94.4733,1,0.0222,2005,
PAWS,Washington,40.1288,-80.2099,1,0.0313,2005,
CAMP,Monterey Peninsula,36.562,-121.8776,1,0.0041,2005,
FLAC,Apalachicola Bay-St. Vincent N.W.R.,29.6749,-85.0737,1,0.017,2005,
LARB,Reserve-Bonnet Carre Spillway,30.0867,-90.4711,1,0.0105,2005,
NSGB,Glace Bay,46.1417,-59.95,1,0.0154,2005,
BCSS,Sidney-South Saltspring,48.6956,-123.4278,1,0.0089,2005,
VISC,"St. Croix, USVI",17.7168,-64.7833,1,0.0245,2005,
COGM,Grand Mesa,39.1463,-108.0253,1,0.0392,2005,
MXCZ,"Coast of Central Veracruz, Mexico",19.31,-96.2844,1,0.0284,2005,
NJCC,Cumberland County,39.3325,-75.2004,1,0.0065,2005,
KSTO,Topeka,39.0483,-95.6779,1,0.0163,2005,
ILAP,Arklands Pyramid,37.575,-89.3228,1,0.0217,2005,
COSD,Salida,38.5,-106,1,0.0202,2005,
WASP,Spokane,47.7151,-117.4112,1,0.0063,2005,
NMGR,Gila River,32.9152,-108.584,1,0.0141,2005,
ILWA,Waukegan,42.3493,-87.8742,1,0.0109,2005,
ABMH,Medicine Hat,50.0177,-110.6845,1,0.0114,2005,
OHAA,Ashtabula,41.8946,-80.6574,1,0.0194,2005,
MIBS,Berrien Springs,42.0167,-86.4167,1,0.019,2005,
TNWC,Warren County,35.6748,-85.777,1,0.0333,2005,
NJMO,Moorestown,39.9422,-74.9391,1,0.0106,2005,
INNC,New Castle,39.9167,-85.3667,1,0.026,2005,
NVPL,Pyramid Lake,39.944,-119.5102,1,0.0328,2005,
ONKG,Kingston,44.206,-76.4611,1,0.0103,2005,
MIKA,Kalamazoo,42.2963,-85.6482,1,0.0145,2005,
ILPE,Peoria,40.6999,-89.6202,1,0.0152,2005,
ONNF,Niagara Falls,43.1667,-79.0667,1,0.0062,2005,
NYHE,Hamburg-East Aurora,42.7223,-78.7445,1,0.0079,2005,ND
MDOA,Oakland,39.4936,-79.3658,1,0.0184,2005,GD
NVMU,Muddy River,36.6792,-114.6242,1,0.0526,2005,
MDWC,Washington County,39.5656,-77.7308,1,0.0141,2005,
MDAC,Allegany County,39.5916,-78.6929,1,0.0317,2005,ND
PAHM,Hamburg,40.5994,-75.9269,1,0.0055,2005,
MDBO,Bowie,38.9927,-76.7852,1,0.004,2005,
PALA,Lancaster,39.9921,-76.3614,1,0.0177,2005,
KYLO,Louisville,38.2929,-85.6284,1,0.0126,2005,
NMPM,Peloncillo Mountains,31.7434,-108.9236,1,0.008,2005,
TXCO,Comstock,29.7104,-101.2531,1,0.019,2005,
ORRD,Redmond,44.2635,-121.1195,1,0.0123,2005,
CTGS,Greenwich-Stamford,41.0826,-73.6138,1,0.0042,2005,
MOKN,Knob Noster,38.7434,-93.6264,1,0.027,2005,
ORBU,Burns,43.5862,-119.0545,1,0.025,2005,
OHPO,Portsmouth,38.7798,-83.1086,1,0.025,2005,
VATP,The Plains,38.8,-77.8667,1,0.0057,2005,
TXWC,Wise County,33.25,-97.6667,1,0.0313,2005,
IARR,Red Rock Lake,41.3866,-93.0242,1,0.0317,2005,
FRIS,Ile St.-Pierre,46.7806,-56.1917,1,0.0274,2005,EO
HIHO,O'ahu: Honolulu,21.3692,-157.7874,1,0.0211,2005,
BCSC,Sunshine Coast,49.4668,-123.6167,1,0,2005,
MACC,Cape Cod,41.7207,-69.9968,1,0.0104,2005,
ILLA,Lisle Arboretum,41.7518,-87.9738,1,0.0051,2005,
FLPB,Perdido Bay,30.3333,-87.3667,1,0.0093,2005,
ONOH,Ottawa-Gatineau,45.4247,-75.6997,1,0.0022,2005,gd
ILEK,Eastern Knox County,41.0183,-90.1299,1,0.0286,2005,
KYDS,Daviess County South,37.6938,-86.9958,1,0.0328,2005,
ORUM,Umatilla County,45.6,-118.6667,1,0.022,2005,
KSUW,Udall-Winfield,37.2647,-96.9756,1,0.0328,2005,
FLPR,Peace River,26.9243,-82.0474,1,0.0082,2005,
NSHD,Halifax-Dartmouth,44.6096,-63.4947,1,0.0037,2005,
ILCR,Calumet City-Sand Ridge,41.6155,-87.5395,1,0.0172,2005,
FLTH,Tallahassee,30.5291,-84.2364,1,0.0116,2005,
LAST,St. Tammany Parish,30.4211,-90.0886,1,0.0092,2005,
FLLW,Lake Wales,27.8939,-81.5189,1,0.0083,2005,
FLNP,North Pinellas,28.0672,-82.7388,1,0.0057,2005,
ILFB,Fermilab-Batavia,41.8605,-88.2628,1,0.0047,2005,
WVON,Ona,38.506,-82.1902,1,0.0175,2005,
UTMO,Moab,38.5667,-109.45,1,0.0148,2005,
MNWB,Wabasha,44.2653,-92.0398,1,0.0331,2005,
MNBL,Bloomington,44.8151,-93.2212,1,0.0061,2005,
CAFO,Folsom,38.6618,-121.0974,1,0.0067,2005,
CTLH,Litchfield Hills,41.7703,-73.2724,cw,0,2005,
MDST,St. Michaels,38.7506,-76.2531,cw,0,2005,
BAGR,"Grand Bahama Island, Bahamas",26.5397,-78.6739,cw,0,2005,
KYSO,Somerset,37.1025,-84.6038,cw,0,2005,
KSAC,Arkansas City,37.0382,-97.0393,cw,0,2005,
COJM,John Martin Reservoir,38.058,-103.033,cw,0,2005,
MTST,Stevensville,46.513,-114.0922,cw,0,2005,
NSYA,Yarmouth,43.8302,-66.0881,cw,0,2005,
OHCO,Columbus,39.9851,-82.9315,cw,0,2005,
OHMI,Millersburg,40.5328,-81.9481,cw,0,2005,
CAMN,Manchester,39.0347,-123.6897,cw,0,2005,
NCKH,Kitty Hawk,36.031,-75.7185,cw,0,2005,
NVCC,Carson City,39.1766,-119.7332,cw,0,2005,
CAWS,Western Sonoma County,38.3853,-123.0306,cw,0,2005,
NMOV,Orilla Verde,36.3333,-105.7,cw,0,2005,
OHCI,Cincinnati,39.1,-84.3,cw,0,2005,
NCSP,Southern Pines,35.2167,-79.3167,cw,0,2005,